console.log("Loading ALLDATA")

var AllData = 
[

   // BEACHES

 {
   "Name": "Kanaha",
   "Tags": ["Beach"],
   "Lat": 20.903017,
   "Lng": -156.438845,
   "Note": "The airport beach",
   "Pics": [
      {"page":"./Maui/Data/beaches/kanaha.html", "img":"https://lh3.googleusercontent.com/pw/AL9nZEWmCY-_-ANTThdrZaqRwn4z5haRzQHoItVM1f1ekDN-kYMnhQ5UGkYLZce5rG2es9zXIV1tTuIBTcRzkDVFzL_6yTYBJTJQ1ZHudUXE9XmwgtgP67Rrw171JFRstYkcuE8b4v4GLvd8oGjUoPKgaofbMQ=w2108-h1580-no"},
      {"img":"https://lh3.googleusercontent.com/pw/AL9nZEWmCY-_-ANTThdrZaqRwn4z5haRzQHoItVM1f1ekDN-kYMnhQ5UGkYLZce5rG2es9zXIV1tTuIBTcRzkDVFzL_6yTYBJTJQ1ZHudUXE9XmwgtgP67Rrw171JFRstYkcuE8b4v4GLvd8oGjUoPKgaofbMQ=w2108-h1580-no"}
   ],
},
 {
   "Name": "VOR",
   "Tags": ["Beach"],
   "Lat": 20.910302,
   "Lng": -156.423677
},
 {
   "Name": "Spreckelsville",
   "Tags": ["Beach"],
   "Lat": 20.913349,
   "Lng": -156.413377
},
 {
   "Name": "Baby Beach (Spreckelsville)",
   "Tags": ["Beach"],
   "Lat": 20.913669,
   "Lng": -156.407069
},
 {
   "Name": "Baldwin",
   "Tags": ["Beach"],
   "Lat": 20.91321,
   "Lng": -156.39305
},
 {
   "Name": "Pāʻia Secret",
   "Tags": ["Beach"],
   "Lat": 20.915994,
   "Lng": -156.388444
},
 {
   "Name": "Kaulahao",
   "Tags": ["Beach"],
   "Lat": 20.922536,
   "Lng": -156.375527
},
 {
   "Name": "Kuau Cove (Mamaʻs Fish House)",
   "Tags": ["Beach"],
   "Lat": 20.929374,
   "Lng": -156.367835
},
 {
   "Name": "Hoʻokipa",
   "Tags": ["Beach"],
   "Lat": 20.933347,
   "Lng": -156.359509
},
 {
   "Name": "Peahi",
   "Tags": ["Beach"],
   "Lat": 20.94262,
   "Lng": -156.297713
},
 {
   "Name": "Honumanu",
   "Tags": ["Beach"],
   "Lat": 20.86101,
   "Lng": -156.165289
},
 {
   "Name": "Paʻlloa",
   "Tags": ["Beach"],
   "Lat": 20.792049,
   "Lng": -156.006864
},
 {
   "Name": "Black Sand (Waiʻānapanapa)",
   "Tags": ["Beach"],
   "Lat": 20.7891,
   "Lng": -156.00525
},
 {
   "Name": "Hāna Bay",
   "Tags": ["Beach"],
   "Lat": 20.7553,
   "Lng": -155.983824,
   "Status":{"visited":true},
   "Pics": [
      {"img":"https://lh3.googleusercontent.com/pw/AL9nZEWYFwrcDYw_OILgBVfgEmEXE9rw8ZNRcIfSUZK-AU6CHSAFEnQXjiPukmSuE55MmLEFwyQfsAASIZW4B0RS8flgFE4RBBQ4sxM0GdGEb-P7vUknsEYo5SmOPxiC3xmV6W0QOzNiylWfa2nQUGzDnn8xVA=w2108-h1580-no"},
      {"img":"https://lh3.googleusercontent.com/pw/AL9nZEWu8h6rL5Vl80d6He-TLc4Oh3MwYwKprAKSUIfA0PBxRWt7qg4gGr6DCd1haFgNC9FQKqMap7SmU0RSwyWBasu47m5azMNtyJ-L90aA5bwRymUbmcZJ_hmbYwD2ukRs7BI5V5QtYOXMbFCOlBHFzzg1YQ=w1186-h1580-no"}
   ]
},
 {
   "Name": "Kaihalulu",
   "Tags": ["Beach"],
   "Lat": 20.753402,
   "Lng": -155.980259
},
 {
   "Name": "Koki",
   "Tags": ["Beach"],
   "Lat": 20.728546,
   "Lng": -155.985827
},
 {
   "Name": "Hamoa",
   "Tags": ["Beach"],
   "Lat": 20.719645,
   "Lng": -155.989008
},
 {
   "Name": "Mokolau",
   "Tags": ["Beach"],
   "Lat": 20.63838,
   "Lng": -156.11157,
   "Status": {"visited":true},
   "Pics": [
      {"img":"https://lh3.googleusercontent.com/pw/AL9nZEUFQ-YxcCRgiSRut6iNtAgGcOgo63KqSP96YxOY4cqu-TfyO06RvisNIo3kVovlrXL-6ev7FC90wYFCQ3CQeBbSOXvD-lx2-D1V0CuVLouCdIBPwmTxw2a5w4gTj3PJqTroGIi3o4lcPwfNdk2BArhjBg=w2108-h1580-no"},
      {"img":"https://lh3.googleusercontent.com/pw/AL9nZEWDFzGs7JwQ_eWeqzTfdBDo-bSEZ_3Qjrp_aYQYUTVBN4m5lHAw4To44FROaDd9pzUVuehwxsYLziYAS2NshWoobST0vv_MXaZj1tLtcWaDqCbIA3AybeW3p0l5kcUbsOsJC2n9LRqUElQ_-8qoM_BWOQ=w2108-h1580-no"},
   ]
},
 {
   "Name": "Waipu",
   "Tags": ["Beach"],
   "Lat": 20.628561,
   "Lng": -156.149431
},
{
   "Name": "Alelele",
   "Tags": ["Beach"],
   "Lat":20.647942380479574, 
   "Lng":-156.08449440251485,
   "Status": {"visited":true},
   "Pics": [
      {"img":"https://lh3.googleusercontent.com/pw/AL9nZEVeWHiq69Df4_5AXzOYGGjtI3wFtZUuV3yA5Zsatp69AYCUXrjgsBEKw4a8GGU79cA2xS38cmmPhKZzOcwrYPoSosDgII9VH7t9HLRa7-Qwa0FiXdOHt9boGN2zeTBN7xWXhBOclIC-EeiI_dytMLaZuw=w2108-h1580-no"},
      {"img":"https://lh3.googleusercontent.com/pw/AL9nZEXjhfVAm84xne7DeQFOIrQho15Y9SRwuqRSavqVE-B3BTtcc0akUXpt7nEBXN2zs7nVRZu88ydZhxaEMqFYQYU_fZMI5g60m86kLf0v6pOgepvzCkJSMN0Dqimed8v-Z9fbogrSSmpYP6WorRRtXWYcYg=w2108-h1580-no"},
    ]
},
{
   "Name": "20.58,-156.39 (Unnamed Beach)",
   "Lat":20.57973,
   "Lng":-156.39149,
   "Tags": ["Beach","Story"],
   "Page": "./Maui/Data/beaches/KHstory.html",
   "Status": {"visited":true,"revisit":true},
   "Pics": [
      {"caption":"White coral in sea of black lava","img":"https://lh3.googleusercontent.com/pw/AL9nZEUb98ctvDGopkn0wW7oclKwFw6GJrTy28-JbOP5UBwV5o82ocYyOexYKQKg_c1h4_5Fyy6sVrLaHIZMSvgmvg-ciICU4FZEirTEAz73vuFIvsl3hcHeupBEiUeqiJiXUbK58s17l0KKTaBONomQ1EQLVg=w2108-h1580-no"},
      {"caption":"Looking North towards Kanaio Beach","img":"https://lh3.googleusercontent.com/pw/AL9nZEU2P5dLPF8_sSriuPTHfT3GTWYxKntezsYycvQu0W4C6XMRVP6Pt9NsaVWLG5YPirb84wFDCL5EFKWGpkW3Hc-fYl65oGzF6-x7PCTu63F3L1xUgz48j1deQRZP4D24bCUO2nk44MtsNvv0ZV--tbwftg=w2108-h1580-no"},
   ]
},
 {
   "Name": "Kanaio (Kingʻs Highway)",
   "Lat": 20.58215,
   "Lng": -156.39802,
   "Tags": ["Beach"],
   "Status": {"visited":true},
   "Pics": [
      {"caption":"Looking NW towards Lanai","img":"https://lh3.googleusercontent.com/pw/AL9nZEV_vh6QVHz1LaRlDzstV2wIPnrZAcMs1ZaAjGfqyRgEpBWZcVwZQZNOBJZNf47hwGwcPn2twLmanjVW8ogGIuq7D3dU5E31BFG6OzniQaahpD6xDjc24ZFwumqyyxpkUZ8M9EfIOwGcRUYe21Vuo_gYxg=w2108-h1580-no"},
      {"img":"https://lh3.googleusercontent.com/pw/AL9nZEWQQqR8Ph_h2XzDJgvDZETs6TTA-QEs4gBnJmqP2a_LJy366SbmllPktR60Sb-XYy35zFKuXmQR476i8-9KbghFGzEb9QdCQbNJNAKNOa-uVWaQ1YbO0A8WSqI36mTQQyqOakquQzOBFiVQLLxPIsNMvg=w1186-h1580-no"},
      {"img":"https://lh3.googleusercontent.com/pw/AL9nZEXNHiJNEB2LA9ro5VQcCrf0cxw9DYQ4N0GbyvHDMfdrO3c7n1D1yOO-H_2za0_1wWq5Y21nkkCTNvgvOwjOlf9RqlaPTu8KpJjRqgp2qJE89reesY_MMxq9x7VtgFtPAEAbc78c6GQhXOS4J5PtimacSw=w1186-h1580-no"},
      {"img":"https://lh3.googleusercontent.com/pw/AL9nZEWi0otkg6CyIqrh2ZliO2NH-X_XL_5wji8rJ7iGGHSjFUD1ijEpzaEg86IQB_HlND9vG-wNTUpHBH6EBXGZeR8QnuRPUHU7SoIzhMErd10em6OhyRaOZJRaGnkuKV5S-rB68b-8kudUZobZJjgwUgtiqQ=w1186-h1580-no"},
   ]
},
 {
   "Name": "La Perouse Bay",
   "Lat": 20.59951,
   "Lng": -156.42060,
   "Tags": ["Beach"],
   "Status": {"visited":true},
   "Pics": [
      {"caption":"Can be good snorkling, but no sandy beach","img":"https://lh3.googleusercontent.com/pw/AL9nZEWhIfeoIVZB5-HAc9IeWXbPZ0jauckCBXG_pme5XvmJ3JK6pgveGHPSjf1lK6pqCQ_5Lpw6xKn2wNj9ft8yS-vDRaFPxL1fQYKzM5TsGblL7qaPSnAWg36onBprVY0_3ahXbRfe70ZHKRRcboLVPBs3Tg=w2108-h1580-no"},
      {"caption":"Looking north at La Perouse from May's Trumpets","img":"https://lh3.googleusercontent.com/pw/AL9nZEVg4Wv55ABaleCAF45dabjL5OFT6hS-9EeMhWD0K2yvBIo-Hc_PylPuSIsI1KopcFqkR5iOJfXqkltvB9zcO_VSmlHIH5kRPY-enU18o4cD32_NplXBRmn67ZJtPI_3NZYZ_mXkM43JOs1z1nwrUstofA=w2108-h1580-no"},
      {"caption":"Jeff Bezos's place","img":"https://lh3.googleusercontent.com/pw/AL9nZEWceDmv7jXUIUBt6qnsaVstZWSKfxzjmpkr1_q6JMgbBXxXLumya4fe39qUbEiZy-cCwC8xPQdj-GjUGO75tv2rZbbZbMwOEqKE-_Pbrb9WFtvOsuC1QGopRPrEUxPn60JoBv62nM5pPnAENJ_Fqb_3NA=w2108-h1580-no"},
   ]
},
 {
   "Name": "Makena Cove",
   "Tags": ["Beach"],
   "Lat": 20.62695,
   "Lng": -156.44313,
   "Status": {"visited":true},
   "Pics": [
      {"img":"https://lh3.googleusercontent.com/pw/AL9nZEUgrl-lCpH_WS0n5l2LutuWQYsWnLvaEAZe9110iHqZM0rhXS6zGaMW4ApnmgJi_wY454vVUfQ0OzVV-lETsGPPXj0dLExcOXsz8C9TT7mmOTJIt595k_Mk6RbQUOu3VVmtlRSlTNLsxW0q30DxrlBWHA=w2108-h1580-no"},
   ]
},
 {
   "Name": "Makena  (Big Beach)",
   "Lat": 20.63185,
   "Lng": -156.44588,
   "Tags": ["Beach"],
   "Status": {"visited":true},
   "Pics": [
      {"img":"https://lh3.googleusercontent.com/pw/AL9nZEUWfxToSqh77mB_Z1EJ323Vf_oj2aY8_jEy5MWgmKgBPw0PxgqwRuEdefBG45nAsoZdba3n0eMq2pSKgEjGYxgIKpEM0M6uRz0WcgQxkSpPXK1jxhNCs19WlKUu1BRJCACCEwkiD8Nf6ygrbdZb0UXzLQ=w2108-h1580-no"},
      {"img":"https://lh3.googleusercontent.com/pw/AL9nZEXq9b5D1vDU29zlD276P4OIZyw_smmbr_vBbfOu986oZ10QiMPgVNQ0RnI51iXAtEyS029DzT7tRJKFvnEeNKGgam016_qlFC7TnPCyTfLefLMSR0jilWnaqW0-xPoeGllhnXrohEx6P0Vp-B3D_rpclQ=w2108-h1580-no"},
      {"img":"https://lh3.googleusercontent.com/pw/AL9nZEVu4Fne7_m2GRa516qtVVQPR9XGdli2W-MdwxxocBhSfQmrwngPWP1-LHHZ34-PhLVAmnAUPy_n08OHoJ2y5StRHDPIe7_hgokb_CNUJGfsHhUR3oexR-aqQGjGNaxgVglOlOeVCHyikLpTBezXckNi5A=w2108-h1580-no"},
      {"img":"https://lh3.googleusercontent.com/pw/AL9nZEXq9b5D1vDU29zlD276P4OIZyw_smmbr_vBbfOu986oZ10QiMPgVNQ0RnI51iXAtEyS029DzT7tRJKFvnEeNKGgam016_qlFC7TnPCyTfLefLMSR0jilWnaqW0-xPoeGllhnXrohEx6P0Vp-B3D_rpclQ=w2108-h1580-no"},
   ]
},
 {
   "Name": "Puu Olai (Little Beach)",
   "Lat": 20.63483,
   "Lng": -156.45180,
   "Tags": ["Beach"],
   "Page": "./Maui/Data/beaches/puuolai.html",
   "Status": {"visited":true},
   "Pics": [
      {"caption":"Looking North", "img":"https://lh3.googleusercontent.com/pw/AL9nZEWGx2LH51fytUkTO99u_8qAhm9T41Xw1Cy0RIRpS9QBCFn__Wtv4PzmCcQqeHqKIvkbz-lP3SQdipsMyBKY37e3F4Qau_2oTgKVVZkNIIvo4BNgM2afbBZsG2mT4UNRuC7izxGVIY0rQ66v2NK-xyTFhg=w2108-h1580-no"},
      {"caption":"Coral Cairn", "img":"https://lh3.googleusercontent.com/pw/AL9nZEXPVlMLnB-M6eQpoviRn7vaWyZ1rKRGZ8uaG-E10N7VeffZbaErUqsG31PhabEUBb8PPZlxg7PIa7YyxIF5W6WTG19GpbRt_hIcAGMf-sGkMbT7U7XVme-FNF2Kvccq5TWCPnMDgsQw7o5b-Se5FziYgQ=w2108-h1580-no"},
      {"caption":"Looking South", "img":"https://lh3.googleusercontent.com/pw/AL9nZEWRxTeFM7LYPeRuuojZ1dRQPGsQqRMH-8EuwzLNWmdyY_I4khlFn7rfM7kOM_52yx2dtJhBh0QNbiM4ZHJuUIO_jGYIhFy8EZ4aKryiDteawps5z7Y0CWYpkguNDymzOcElf1mKJ4Xlhg2T6GWhRY-epg=w2108-h1580-no"},
   ]
},
 {
   "Name": "Oneʻuli",
   "Lat": 20.639698,
   "Lng": -156.447976,
   "Tags": ["Beach"],
   "Status": {"visited":true},
   "Pics": [
      {"img":"https://lh3.googleusercontent.com/pw/AL9nZEVcD2nQjhAERYscKupbQZsSCwTFpglpMhyhDr5NeSG8fBnnw4Yb9wHDVa2Ubu-_kLDbG8DHLvyx8EeNGnan7em7gGeH_wVB_lnHUzzmG3JFtttPUnWp1DAEsA0YOccYsVwhSadFcCvBCmPH_ovHWnfhsg=w2108-h1580-no"},
      {"img":"https://lh3.googleusercontent.com/pw/AL9nZEXsmBoyt9_u-t9z4wCxScbM8Npug6y-BBRAcJt2ZEi1sg3cvinBABPvYicSBehfCkVsY-tHmQyUyMaJTvpAsvJ2LC8DxtaVPOIMJaOETjbQfGE83QtzX0p4S4cF-O_tlk2A0uoAS95iu6k2nM9tFLpkng=w2108-h1580-no"},
      {"img":"https://lh3.googleusercontent.com/pw/AL9nZEV1KvHePI4R0pgXlm184DZTXBLjJyhgFaTzRh7oe0RmX_9tY5s60kfD9DJm16pUIGMIHXtPnxjqskcTwi87-K2Rv5iZ3lUEi5L3G7usxtbAKOH4Axz4A_q8EZq2R8fTb3GxqYjKJfYk_FUwSir_q1PkHg=w2108-h1580-no"},
      {"img":"https://lh3.googleusercontent.com/pw/AL9nZEWugHRk4OD_cVI9kSqzcokj27-BOEZpyHpzTBajFsfSy6bwBl871PVfGBeaq7wkAh-AfskZh2vqyVa5BuClQd-Cn1vb1swnIJPRqrQaEIe1VRCZmA417bZFv9-579Cf25SJg19t48F8M_ebZV9D2eBhDw=w2108-h1580-no"},
   ]
},
 {
   "Name": "Maluaka",
   "Tags": ["Beach"],
   "Lat": 20.646171,
   "Lng": -156.443137
},
 {
   "Name": "Makena Landing",
   "Tags": ["Beach"],
   "Lat": 20.654016,
   "Lng": -156.441016
},
 {
   "Name": "Poʻolenalena (Changʻs)",
   "Tags": ["Beach"],
   "Lat": 20.661338,
   "Lng": -156.441791
},
 {
   "Name": "PoʻOlenalena  ",
   "Tags": ["Beach"],
   "Lat": 20.665126,
   "Lng": -156.44
},
 {
   "Name": "Palauea",
   "Tags": ["Beach"],
   "Lat": 20.67074,
   "Lng": -156.44326
},
 {
   "Name": "Polo",
   "Tags": ["Beach"],
   "Lat": 20.674648,
   "Lng": -156.444237,
   "Status": {"visited":true},
   "Pics": [
      {"img":"https://lh3.googleusercontent.com/pw/AL9nZEUS5q_UhyAFg9MMVH1co8V4SGS-JHJfO8kWpdLOP1z_lGkaaEpH3KXCEs36peMDtWlVqnqKDeQXdKUyU3bME9rHBb97LMgfaEpHeGNEWrqPmbjTy2bzuWqXUbtQc_AaRW4lsL4ncEDEkgA80sxPVvMIag=w2108-h1580-no"},
      {"caption":"Not on the beach, but close by","img":"https://lh3.googleusercontent.com/pw/AL9nZEXDVlTKzP5O0myaKJA_4XEjTECS6WtaqjvuM4LlI4VyXnlPLQt2FlOjzkoiXuJHCUPfEHd4RL7dphmZ6Ss4f0QRifnX1xsZ6xWN-qDkRzXyd6ziYNrOZL4m5-49jnods-vo7-sgSMpJVrRYPtal9byifw=w2108-h1580-no"},
   ]
},
 {
   "Name": "Wailea",
   "Tags": ["Beach"],
   "Lat": 20.68257,
   "Lng": -156.44382,
   "Status": {"visited":true},
   "Pics": [
      {"img":"https://lh3.googleusercontent.com/pw/AL9nZEWrXifIg2_hAfWwnqCCCHF3DKwGKdi0igGfiypu4qYzq5F8J9FhluHGqdzhD_ljGit0zc37n8Hs-R-ekYnh0YlqXDkMjBD1pANGyz51fYe-bI1z-C65MwnVrpAYAtvP0h-AG-QBocIokR7Pyc1PFjRVqg=w2108-h1580-no"},
    ]
},
 {
   "Name": "Ulua",
   "Tags": ["Beach"],
   "Lat": 20.69047,
   "Lng": -156.44405,
   "Status": {"visited":true},
   "Pics": [
      {"img":"https://lh3.googleusercontent.com/pw/AL9nZEXyNwCHGxGQ9vjkv5-tD8TUsgkHThvWFG6uP-xlHKcXYsdNMa3e9waacmxxokjz5yzuY6InAVTHT_Ourp6Xb40RSzgVCQiiSHlVXNe1jthLwcsJ1CCmdlW96dWsl2-ZSLEtsRkjWZsCTBKg9lDqQb16ag=w2108-h1580-no"},
      {"img":"https://lh3.googleusercontent.com/pw/AL9nZEW5XKLMMLg_PK2X54v3RIFdFWBfpAoHQDWkHbdfA8rbTVhjr-aPJAzIW7WaILH7ZGP9uXBoYOIhtjWMn1D3R2zZ3PpoQy8F_guVtBqD5AkySGWUMZ3C1VXQqKaLuM1pZ8rIU7EOCQARdFzbx2IvlLGSFw=w2108-h1580-no"},
      {"img":"https://lh3.googleusercontent.com/pw/AL9nZEVSHBjjTa6tVYcuzbpJkSA-xxnYgxrwbutMcuNLqBQoDtPKK56XfWCAvPS5EGWvHTQjVgkzZU4BBnLEmT9bZrTP2dceMSrXrFJPmMSvfPGsrdho1WeYTNaFnxrb2nalveIl_9geyk3OaKVl3AmLWR8lLA=w2808-h1580-no"},
   ]
},
 {
   "Name": "Mōkapu",
   "Tags": ["Beach"],
   "Lat": 20.692903,
   "Lng": -156.444975
},
 {
   "Name": "Keawakapu",
   "Tags": ["Beach"],
   "Lat": 20.704288,
   "Lng": -156.447008,
   "Status": {"visited":true},
   "Pics": [
      {"img":"https://lh3.googleusercontent.com/pw/AL9nZEWH_YUMuLX-cgn3zCK3Zh5uUKWxUFWp-12fCpqxhy_HpGC_PC98HvJMRgXKXCeJrSSizUtZI3DALij1N0ZY2Wi-kx_FuY9T7x19AYsZEEN6P1PdVLKAVdHkYCnOZYmUmkOpm7zU3ozS9dTkEuYQfkQXoA=w1186-h1580-no"},
      {"img":"https://lh3.googleusercontent.com/pw/AL9nZEWmBhFvno7C73v5FF8kfWcrbTICOTwwznOPanaAHUozPgvOfLzH7FX1HgkpFv1HRBEUNrz4enNIrtAeYcJCHdg6EYZai5CW01A08ic5BtQf2W-raaGOF3zVNZxrCRZakx17ZlyqKCZwkb1SXHqy8iFriw=w2108-h1580-no"},
      {"img":"https://lh3.googleusercontent.com/pw/AL9nZEXjuV74-uRBVDNAlnvmukNeSYKA3D__bb2H5XOigovKOJaQG1F-l2uAn4lJHTNMzRihfBDuzYyrclt9ms6OjjgVpUfZJ0KV8S3Syup78qUS1nxGqgYbYNNgfWE-bST7m8mEQa5WOIFYzojN6b3A9oUEPA=w2108-h1580-no"},
      {"img":"https://lh3.googleusercontent.com/pw/AL9nZEVMw-k4zZis_psnQk5jHRC9L-6PPVwORCR0e-n2YVtbLcIXj2dJ7l_yk16sGllG2Ty5JbhBLB7rcXU3A7cUwHrEYFi9EqI4hU5nBzo3eRYhTn7MrX5-xxI9GbJnjexq6VAkU3rFA5QryQgeUq52hy7Zxw=w2108-h1580-no"},
   ]
},
 {
   "Name": "Kamaole III",
   "Tags": ["Beach"],
   "Lat": 20.712937,
   "Lng": 156.446229
},
 {
   "Name": "Kamaole II ",
   "Tags": ["Beach"],
   "Lat": 20.716366,
   "Lng": -156.447189
},
 {
   "Name": "Kamaole I  ",
   "Tags": ["Beach"],
   "Lat": 20.722384,
   "Lng": -156.448524
},
 {
   "Name": "Charley Young",
   "Tags": ["Beach"],
   "Lat": 20.724837,
   "Lng": -156.44958
},
 {
   "Name": "Cove Beach Park",
   "Tags": ["Beach"],
   "Lat": 20.72747,
   "Lng": -156.45062
},
 {
   "Name": "Kalama",
   "Tags": ["Beach"],
   "Lat": 20.73144,
   "Lng": -156.45302
},
 {
   "Name": "TBD (Halama)",
   "Tags": ["Beach"],
   "Lat": 20.73643,
   "Lng": -156.4564
},
 {
   "Name": "TBD (Welakahao, Kihei)",
   "Tags": ["Beach"],
   "Lat": 20.739717,
   "Lng": -156.456651
},
 {
   "Name": "TBD (Waiohuli, Kihei)",
   "Tags": ["Beach"],
   "Lat": 20.743534,
   "Lng": -156.457467
},
 {
   "Name": "Lipoa",
   "Tags": ["Beach"],
   "Lat": 20.747305,
   "Lng": -156.457824
},
 {
   "Name": "Laie",
   "Tags": ["Beach"],
   "Lat": 20.750929,
   "Lng": -156.460736
},
 {
   "Name": "Waipuilani",
   "Tags": ["Beach"],
   "Lat": 20.756858,
   "Lng": -156.45919
},
 {
   "Name": "Keaka ",
   "Tags": ["Beach"],
   "Lat": 20.76194,
   "Lng": -156.45943
},
 {
   "Name": "Kalepolepo (Fishpond)",
   "Tags": ["Beach"],
   "Lat": 20.764273,
   "Lng": -156.459153
},
 {
   "Name": "Kaipukaihina",
   "Tags": ["Beach"],
   "Lat": 20.772012,
   "Lng": 156.459903
},
 {
   "Name": "Mai Poina",
   "Tags": ["Beach"],
   "Lat": 20.774577,
   "Lng": -156.460672
},
 {
   "Name": "Kenolio",
   "Tags": ["Beach"],
   "Lat": 20.780683,
   "Lng": -156.462557
},
 {
   "Name": "Sugar",
   "Tags": ["Beach"],
   "Lat": 20.78548,
   "Lng": -156.46837
},
 {
   "Name": "Maalaea",
   "Tags": ["Beach"],
   "Lat": 20.793959,
   "Lng": -156.482869
},
 {
   "Name": "Haycraft",
   "Tags": ["Beach"],
   "Lat": 20.79662,
   "Lng": -156.50322
},
 {
   "Name": "Pāpalaua",
   "Tags": ["Beach"],
   "Lat": 20.79305,
   "Lng": -156.57182
},
 {
   "Name": "Ukumehame",
   "Tags": ["Beach"],
   "Lat": 20.795711,
   "Lng": -156.585243
},
 {
   "Name": "Olowalu",
   "Tags": ["Beach"],
   "Lat": 20.809067,
   "Lng": -156.615868
},
 {
   "Name": "Awalua",
   "Tags": ["Beach"],
   "Lat": 20.828315,
   "Lng": -156.635579
},
 {
   "Name": "Launiupoko",
   "Tags": ["Beach"],
   "Lat": 20.842513,
   "Lng": -156.652798
},
 {
   "Name": "Kamehamea Iki",
   "Tags": ["Beach"],
   "Lat": 20.86836,
   "Lng": -156.6765
},
 {
   "Name": "Emilyʻs",
   "Tags": ["Beach"],
   "Lat": 20.86984,
   "Lng": -156.67742
},
 {
   "Name": "Puuno (Baby Beach Lahaina)",
   "Tags": ["Beach"],
   "Lat": 20.88288,
   "Lng": -156.68776
},
 {
   "Name": "TBD (btw Lahaina and Kanapali)",
   "Tags": ["Beach"],
   "Lat": 20.90362,
   "Lng": -156.68547
},
 {
   "Name": "Hanakaoʻo",
   "Tags": ["Beach"],
   "Lat": 20.90959,
   "Lng": -156.68877
},
 {
   "Name": "Kaanapali",
   "Tags": ["Beach"],
   "Lat": 20.91789,
   "Lng": -156.69679
},
 {
   "Name": "Black Rock",
   "Tags": ["Beach"],
   "Lat": 20.92676,
   "Lng": -156.69581
},
 {
   "Name": "Mayʻs",
   "Tags": ["Beach"],
   "Lat": 20.92891,
   "Lng": -156.69473
},
 {
   "Name": "Beckoʻs Island",
   "Tags": ["Beach"],
   "Lat": 20.93294,
   "Lng": -156.69306
},
 {
   "Name": "Kahekili",
   "Tags": ["Beach"],
   "Lat": 20.93701,
   "Lng": -156.69283
},
 {
   "Name": "Willʻs",
   "Tags": ["Beach"],
   "Lat": 20.9416,
   "Lng": -156.6925
},
 {
   "Name": "Honokōwai",
   "Tags": ["Beach"],
   "Lat": 20.95468,
   "Lng": -156.68677
},
 {
   "Name": "Pohaku",
   "Tags": ["Beach"],
   "Lat": 20.968074,
   "Lng": -156.681281
},
 {
   "Name": "TBD",
   "Tags": ["Beach"],
   "Lat": 20.97745,
   "Lng": -156.67792
},
 {
   "Name": "TBD",
   "Tags": ["Beach"],
   "Lat": 20.97906,
   "Lng": -156.67575
},
 {
   "Name": "Kaʻopala",
   "Tags": ["Beach"],
   "Lat": 20.982207,
   "Lng": -156.673388
},
 {
   "Name": "Kahana Sunset",
   "Tags": ["Beach"],
   "Lat": 20.98496,
   "Lng": -156.67226
},
 {
   "Name": "Napili Bay",
   "Tags": ["Beach"],
   "Lat": 20.99546,
   "Lng": -156.66649
},
 {
   "Name": "Kapalua Bay",
   "Tags": ["Beach"],
   "Lat": 20.99953,
   "Lng": -156.66645
},
 {
   "Name": "Oneloa",
   "Tags": ["Beach"],
   "Lat": 21.0041,
   "Lng": -156.65895
},
 {
   "Name": "Fleming ",
   "Tags": ["Beach"],
   "Lat": 21.00461,
   "Lng": -156.65239
},
 {
   "Name": "Slaughterhouse",
   "Tags": ["Beach"],
   "Lat": 21.011259,
   "Lng": -156.642011
},
 {
   "Name": "Punalau",
   "Tags": ["Beach"],
   "Lat": 21.0223,
   "Lng": -156.62575
},
 {
   "Name": "TBD",
   "Tags": ["Beach"],
   "Lat": 21.02116,
   "Lng": -156.60961
},
 {
   "Name": "Kahakuloa",
   "Tags": ["Beach"],
   "Lat": 20.99787,
   "Lng": -156.5504
},
 {
   "Name": "Waihee",
   "Tags": ["Beach"],
   "Lat": 20.9323,
   "Lng": -156.498764
},
 {
   "Name": "Waiehu",
   "Tags": ["Beach"],
   "Lat": 20.92305,
   "Lng": -156.49284
},
 {
   "Name": "Paukukala",
   "Tags": ["Beach"],
   "Lat": 20.91062,
   "Lng": -156.48527
},
 {
   "Name": "Kahalui",
   "Tags": ["Beach"],
   "Lat": 20.896052,
   "Lng": -156.479046
},
 {
   "Name": "Hoʻaloha",
   "Tags": ["Beach"],
   "Lat": 20.89229,
   "Lng": -156.46939
},
 {
   "Name": "Kite",
   "Tags": ["Beach"],
   "Lat": 20.89679,
   "Lng": -156.4502
},

// TRAILS

{
   "Name": "Kaupo Gap",
   Tags: ["Trail"],
   "Lat": 20.64881,
   "Lng":-156.13807,
   "Status": {"planning":true},
   "Page": "./Maui/Data/trails/kaupogap.html", 
   "Pics": [
      {"img":"https://www.halfwayanywhere.com/wp-content/uploads/2014/03/Kaupo-Gap-Trail-Marker-Brush.jpg"}
   ],
},

]