console.log("Loading ALLDATA")
StoryInNote = "<element onclick=\"document.getElementById('descButton').click();document.getElementById('notesSpot').style.display='none'\">&#128214;</element>"

var AllData = 
[

   // BEACHES

 {
   "Name": "Kanaha",
   "Translation": "The Shattered [Thing]",
   "Tags": ["Beach"],
   "Lat": 20.903017,
   "Lng": -156.438845,
   "Note": "The airport beach",
   "Pics": [
      {"page":"./Maui/Data/beaches/kanaha.html", "img":"https://lh3.googleusercontent.com/pw/AL9nZEWmCY-_-ANTThdrZaqRwn4z5haRzQHoItVM1f1ekDN-kYMnhQ5UGkYLZce5rG2es9zXIV1tTuIBTcRzkDVFzL_6yTYBJTJQ1ZHudUXE9XmwgtgP67Rrw171JFRstYkcuE8b4v4GLvd8oGjUoPKgaofbMQ=w2108-h1580-no"},
      {"img":"https://lh3.googleusercontent.com/pw/AL9nZEWmCY-_-ANTThdrZaqRwn4z5haRzQHoItVM1f1ekDN-kYMnhQ5UGkYLZce5rG2es9zXIV1tTuIBTcRzkDVFzL_6yTYBJTJQ1ZHudUXE9XmwgtgP67Rrw171JFRstYkcuE8b4v4GLvd8oGjUoPKgaofbMQ=w2108-h1580-no",
       "note":"<p>This</p> <p>is HTML</p> <p>This</p> <p>is HTML</p> <p>This</p> <p>is HTML</p> <p>This</p> <p>is HTML</p> <p>This</p> <p>is HTML</p> "},
   ],
},
 {
   "Name": "VOR",
   "Tags": ["Beach"],
   "Lat": 20.910302,
   "Lng": -156.423677
},
 {
   "Name": "Spreckelsville",
   "Tags": ["Beach"],
   "Status": {"visited":true},
   "Lat": 20.913349,
   "Lng": -156.413377
},
 {
   "Name": "Baby Beach (Spreckelsville)",
   "Tags": ["Beach"],
   "Status": {"visited":true},
   "Lat": 20.913669,
   "Lng": -156.407069
},
 {
   "Name": "Baldwin",
   "Tags": ["Beach"],
   "Status": {"visited":true},
   "Lat": 20.91321,
   "Lng": -156.39305
},
 {
   "Name": "Pāʻia Secret",
   "Translation": "Noisy",
   "Tags": ["Beach"],
   "Status": {"visited":true},
   "Lat": 20.915994,
   "Lng": -156.388444,
   "Pics": [
      {"img":"https://lh3.googleusercontent.com/pw/AL9nZEWQ5WZyb7Kv1pb3qcw18HFHavCT-Lvk2kN2nZjI8XjtcaohOWyTw6l_o84sY2Ps3_mgz6DlwdSRSzhi9fR1ZCtm9hGNullzhiaYQz_56Bz4E-oXyiDnRrThIL4uQ2k-ftmETtsQNeg4eCMO_NLqaveI5A=w2107-h1580-no"},
   ]
},
 {
   "Name": "Kaulahao",
   "Translation": "News",
   "Status": {"visited":true},
   "Tags": ["Beach"],
   "Lat": 20.922536,
   "Lng": -156.375527
},
 {
   "Name": "Kuau Cove",
   "Translation": "I'm sorry / handle",
   "Tags": ["Beach"],
   "Lat": 20.929374,
   "Lng": -156.367835
},
 {
   "Name": "Hoʻokipa",
   "Translation": "Welcome / Hospitality",
   "Tags": ["Beach"],
   "Status": {"visited":true},
   "Lat": 20.933347,
   "Lng": -156.359509
},
 {
   "Name": "Peahi",
   "Translation": "Fan",
   "Tags": ["Beach"],
   "Lat": 20.94262,
   "Lng": -156.297713
},
 {
   "Name": "Honumanu",
   "Tags": ["Beach"],
   "Lat": 20.86101,
   "Lng": -156.165289
},
 {
   "Name": "Paʻlloa",
   "Tags": ["Beach"],
   "Lat": 20.792049,
   "Lng": -156.006864
},
 {
   "Name": "Black Sand (Waiʻānapanapa)",
   "Tags": ["Beach"],
   "Lat": 20.7891,
   "Lng": -156.00525
},
 {
   "Name": "Hāna Bay",
   "Tags": ["Beach"],
   "Lat": 20.7553,
   "Lng": -155.983824,
   "Status":{"visited":true},
   "Pics": [
      {"img":"https://lh3.googleusercontent.com/pw/AL9nZEWYFwrcDYw_OILgBVfgEmEXE9rw8ZNRcIfSUZK-AU6CHSAFEnQXjiPukmSuE55MmLEFwyQfsAASIZW4B0RS8flgFE4RBBQ4sxM0GdGEb-P7vUknsEYo5SmOPxiC3xmV6W0QOzNiylWfa2nQUGzDnn8xVA=w2108-h1580-no"},
      {"img":"https://lh3.googleusercontent.com/pw/AL9nZEWu8h6rL5Vl80d6He-TLc4Oh3MwYwKprAKSUIfA0PBxRWt7qg4gGr6DCd1haFgNC9FQKqMap7SmU0RSwyWBasu47m5azMNtyJ-L90aA5bwRymUbmcZJ_hmbYwD2ukRs7BI5V5QtYOXMbFCOlBHFzzg1YQ=w1186-h1580-no"}
   ]
},
 {
   "Name": "Kaihalulu",
   "Tags": ["Beach"],
   "Lat": 20.753402,
   "Lng": -155.980259
},
 {
   "Name": "Koki",
   "Tags": ["Beach"],
   "Lat": 20.728546,
   "Lng": -155.985827
},
 {
   "Name": "Hamoa",
   "Tags": ["Beach"],
   "Lat": 20.719645,
   "Lng": -155.989008
},
 {
   "Name": "Mokolau",
   "Translation": "America",
   "Tags": ["Beach"],
   "Lat": 20.63838,
   "Lng": -156.11157,
   "Status": {"visited":true},
   "Pics": [
      {"img":"https://lh3.googleusercontent.com/pw/AL9nZEUFQ-YxcCRgiSRut6iNtAgGcOgo63KqSP96YxOY4cqu-TfyO06RvisNIo3kVovlrXL-6ev7FC90wYFCQ3CQeBbSOXvD-lx2-D1V0CuVLouCdIBPwmTxw2a5w4gTj3PJqTroGIi3o4lcPwfNdk2BArhjBg=w2108-h1580-no"},
      {"img":"https://lh3.googleusercontent.com/pw/AL9nZEWDFzGs7JwQ_eWeqzTfdBDo-bSEZ_3Qjrp_aYQYUTVBN4m5lHAw4To44FROaDd9pzUVuehwxsYLziYAS2NshWoobST0vv_MXaZj1tLtcWaDqCbIA3AybeW3p0l5kcUbsOsJC2n9LRqUElQ_-8qoM_BWOQ=w2108-h1580-no"},
   ]
},
 {
   "Name": "Waipu",
   "Tags": ["Beach"],
   "Lat": 20.628561,
   "Lng": -156.149431
},
{
   "Name": "Alelele",
   "Tags": ["Beach"],
   "Lat":20.647942380479574, 
   "Lng":-156.08449440251485,
   "Status": {"visited":true},
   "Pics": [
      {"img":"https://lh3.googleusercontent.com/pw/AL9nZEVeWHiq69Df4_5AXzOYGGjtI3wFtZUuV3yA5Zsatp69AYCUXrjgsBEKw4a8GGU79cA2xS38cmmPhKZzOcwrYPoSosDgII9VH7t9HLRa7-Qwa0FiXdOHt9boGN2zeTBN7xWXhBOclIC-EeiI_dytMLaZuw=w2108-h1580-no"},
      {"img":"https://lh3.googleusercontent.com/pw/AL9nZEXjhfVAm84xne7DeQFOIrQho15Y9SRwuqRSavqVE-B3BTtcc0akUXpt7nEBXN2zs7nVRZu88ydZhxaEMqFYQYU_fZMI5g60m86kLf0v6pOgepvzCkJSMN0Dqimed8v-Z9fbogrSSmpYP6WorRRtXWYcYg=w2108-h1580-no"},
    ]
},
{
   "Name": "20.58,-156.39 (Unnamed Beach)",
   "Lat":20.57973,
   "Lng":-156.39149,
   "Tags": ["Beach","Story"],
   "Page": {"url":"./Maui/Data/beaches/KHstory.html","display":true,"proofed":true},
   "Status": {"visited":true,"revisit":true},
   "Pics": [
      {"caption":"White coral in sea of black lava","img":"https://lh3.googleusercontent.com/pw/AL9nZEUb98ctvDGopkn0wW7oclKwFw6GJrTy28-JbOP5UBwV5o82ocYyOexYKQKg_c1h4_5Fyy6sVrLaHIZMSvgmvg-ciICU4FZEirTEAz73vuFIvsl3hcHeupBEiUeqiJiXUbK58s17l0KKTaBONomQ1EQLVg=w2108-h1580-no"},
      {"caption":"Looking North towards Kanaio Beach","img":"https://lh3.googleusercontent.com/pw/AL9nZEU2P5dLPF8_sSriuPTHfT3GTWYxKntezsYycvQu0W4C6XMRVP6Pt9NsaVWLG5YPirb84wFDCL5EFKWGpkW3Hc-fYl65oGzF6-x7PCTu63F3L1xUgz48j1deQRZP4D24bCUO2nk44MtsNvv0ZV--tbwftg=w2108-h1580-no",
       "note":"Oh, look. ATV tracks. Perhaps you should read the write-up "+StoryInNote+"."},
   ]
},
 {
   "Name": "Kanaio (Kingʻs Highway)",
   "Lat": 20.58215,
   "Lng": -156.39802,
   "Tags": ["Beach"],
   "Status": {"visited":true},
   "Pics": [
      {"caption":"Looking NW towards Lanai","img":"https://lh3.googleusercontent.com/pw/AL9nZEV_vh6QVHz1LaRlDzstV2wIPnrZAcMs1ZaAjGfqyRgEpBWZcVwZQZNOBJZNf47hwGwcPn2twLmanjVW8ogGIuq7D3dU5E31BFG6OzniQaahpD6xDjc24ZFwumqyyxpkUZ8M9EfIOwGcRUYe21Vuo_gYxg=w2108-h1580-no"},
      {"img":"https://lh3.googleusercontent.com/pw/AL9nZEWQQqR8Ph_h2XzDJgvDZETs6TTA-QEs4gBnJmqP2a_LJy366SbmllPktR60Sb-XYy35zFKuXmQR476i8-9KbghFGzEb9QdCQbNJNAKNOa-uVWaQ1YbO0A8WSqI36mTQQyqOakquQzOBFiVQLLxPIsNMvg=w1186-h1580-no"},
      {"img":"https://lh3.googleusercontent.com/pw/AL9nZEXNHiJNEB2LA9ro5VQcCrf0cxw9DYQ4N0GbyvHDMfdrO3c7n1D1yOO-H_2za0_1wWq5Y21nkkCTNvgvOwjOlf9RqlaPTu8KpJjRqgp2qJE89reesY_MMxq9x7VtgFtPAEAbc78c6GQhXOS4J5PtimacSw=w1186-h1580-no"},
      {"img":"https://lh3.googleusercontent.com/pw/AL9nZEWi0otkg6CyIqrh2ZliO2NH-X_XL_5wji8rJ7iGGHSjFUD1ijEpzaEg86IQB_HlND9vG-wNTUpHBH6EBXGZeR8QnuRPUHU7SoIzhMErd10em6OhyRaOZJRaGnkuKV5S-rB68b-8kudUZobZJjgwUgtiqQ=w1186-h1580-no"},
   ]
},
 {
   "Name": "La Perouse Bay",
   "Lat": 20.59951,
   "Lng": -156.42060,
   "Tags": ["Beach"],
   "Status": {"visited":true},
   "Pics": [
      {"caption":"Can be good snorkling, but no sandy beach","img":"https://lh3.googleusercontent.com/pw/AL9nZEWhIfeoIVZB5-HAc9IeWXbPZ0jauckCBXG_pme5XvmJ3JK6pgveGHPSjf1lK6pqCQ_5Lpw6xKn2wNj9ft8yS-vDRaFPxL1fQYKzM5TsGblL7qaPSnAWg36onBprVY0_3ahXbRfe70ZHKRRcboLVPBs3Tg=w2108-h1580-no"},
      {"caption":"Looking north at La Perouse from May's Trumpets","img":"https://lh3.googleusercontent.com/pw/AL9nZEVg4Wv55ABaleCAF45dabjL5OFT6hS-9EeMhWD0K2yvBIo-Hc_PylPuSIsI1KopcFqkR5iOJfXqkltvB9zcO_VSmlHIH5kRPY-enU18o4cD32_NplXBRmn67ZJtPI_3NZYZ_mXkM43JOs1z1nwrUstofA=w2108-h1580-no"},
      {"caption":"Jeff Bezos's place","img":"https://lh3.googleusercontent.com/pw/AL9nZEWceDmv7jXUIUBt6qnsaVstZWSKfxzjmpkr1_q6JMgbBXxXLumya4fe39qUbEiZy-cCwC8xPQdj-GjUGO75tv2rZbbZbMwOEqKE-_Pbrb9WFtvOsuC1QGopRPrEUxPn60JoBv62nM5pPnAENJ_Fqb_3NA=w2108-h1580-no"},
   ]
},
 {
   "Name": "Makena Cove",
   "Tags": ["Beach"],
   "Lat": 20.62695,
   "Lng": -156.44313,
   "Status": {"visited":true},
   "Pics": [
      {"img":"https://lh3.googleusercontent.com/pw/AL9nZEUgrl-lCpH_WS0n5l2LutuWQYsWnLvaEAZe9110iHqZM0rhXS6zGaMW4ApnmgJi_wY454vVUfQ0OzVV-lETsGPPXj0dLExcOXsz8C9TT7mmOTJIt595k_Mk6RbQUOu3VVmtlRSlTNLsxW0q30DxrlBWHA=w2108-h1580-no"},
   ]
},
 {
   "Name": "Makena  (Big Beach)",
   "Lat": 20.63185,
   "Lng": -156.44588,
   "Tags": ["Beach"],
   "Status": {"visited":true},
   "Pics": [
      {"img":"https://lh3.googleusercontent.com/pw/AL9nZEUWfxToSqh77mB_Z1EJ323Vf_oj2aY8_jEy5MWgmKgBPw0PxgqwRuEdefBG45nAsoZdba3n0eMq2pSKgEjGYxgIKpEM0M6uRz0WcgQxkSpPXK1jxhNCs19WlKUu1BRJCACCEwkiD8Nf6ygrbdZb0UXzLQ=w2108-h1580-no"},
      {"img":"https://lh3.googleusercontent.com/pw/AL9nZEXq9b5D1vDU29zlD276P4OIZyw_smmbr_vBbfOu986oZ10QiMPgVNQ0RnI51iXAtEyS029DzT7tRJKFvnEeNKGgam016_qlFC7TnPCyTfLefLMSR0jilWnaqW0-xPoeGllhnXrohEx6P0Vp-B3D_rpclQ=w2108-h1580-no"},
      {"img":"https://lh3.googleusercontent.com/pw/AL9nZEVu4Fne7_m2GRa516qtVVQPR9XGdli2W-MdwxxocBhSfQmrwngPWP1-LHHZ34-PhLVAmnAUPy_n08OHoJ2y5StRHDPIe7_hgokb_CNUJGfsHhUR3oexR-aqQGjGNaxgVglOlOeVCHyikLpTBezXckNi5A=w2108-h1580-no"},
      {"img":"https://lh3.googleusercontent.com/pw/AL9nZEXq9b5D1vDU29zlD276P4OIZyw_smmbr_vBbfOu986oZ10QiMPgVNQ0RnI51iXAtEyS029DzT7tRJKFvnEeNKGgam016_qlFC7TnPCyTfLefLMSR0jilWnaqW0-xPoeGllhnXrohEx6P0Vp-B3D_rpclQ=w2108-h1580-no"},
   ]
},
 {
   "Name": "Puu Olai (Little Beach)",
   "Lat": 20.63483,
   "Lng": -156.45180,
   "Tags": ["Beach","Story"],
   "Page": {"url":"./Maui/Data/beaches/puuolai.html","display":true, "proofed":true},
   "Status": {"visited":true},
   "Pics": [
      {"caption":"Looking North", "img":"https://lh3.googleusercontent.com/pw/AL9nZEWGx2LH51fytUkTO99u_8qAhm9T41Xw1Cy0RIRpS9QBCFn__Wtv4PzmCcQqeHqKIvkbz-lP3SQdipsMyBKY37e3F4Qau_2oTgKVVZkNIIvo4BNgM2afbBZsG2mT4UNRuC7izxGVIY0rQ66v2NK-xyTFhg=w2108-h1580-no"},
      {"caption":"Coral Cairn", "img":"https://lh3.googleusercontent.com/pw/AL9nZEXPVlMLnB-M6eQpoviRn7vaWyZ1rKRGZ8uaG-E10N7VeffZbaErUqsG31PhabEUBb8PPZlxg7PIa7YyxIF5W6WTG19GpbRt_hIcAGMf-sGkMbT7U7XVme-FNF2Kvccq5TWCPnMDgsQw7o5b-Se5FziYgQ=w2108-h1580-no"},
      {"caption":"Looking South", "img":"https://lh3.googleusercontent.com/pw/AL9nZEWRxTeFM7LYPeRuuojZ1dRQPGsQqRMH-8EuwzLNWmdyY_I4khlFn7rfM7kOM_52yx2dtJhBh0QNbiM4ZHJuUIO_jGYIhFy8EZ4aKryiDteawps5z7Y0CWYpkguNDymzOcElf1mKJ4Xlhg2T6GWhRY-epg=w2108-h1580-no"},
   ]
},
 {
   "Name": "Oneʻuli",
   "Lat": 20.639698,
   "Lng": -156.447976,
   "Tags": ["Beach"],
   "Status": {"visited":true},
   "Pics": [
      {"img":"https://lh3.googleusercontent.com/pw/AL9nZEVcD2nQjhAERYscKupbQZsSCwTFpglpMhyhDr5NeSG8fBnnw4Yb9wHDVa2Ubu-_kLDbG8DHLvyx8EeNGnan7em7gGeH_wVB_lnHUzzmG3JFtttPUnWp1DAEsA0YOccYsVwhSadFcCvBCmPH_ovHWnfhsg=w2108-h1580-no"},
      {"img":"https://lh3.googleusercontent.com/pw/AL9nZEXsmBoyt9_u-t9z4wCxScbM8Npug6y-BBRAcJt2ZEi1sg3cvinBABPvYicSBehfCkVsY-tHmQyUyMaJTvpAsvJ2LC8DxtaVPOIMJaOETjbQfGE83QtzX0p4S4cF-O_tlk2A0uoAS95iu6k2nM9tFLpkng=w2108-h1580-no"},
      {"img":"https://lh3.googleusercontent.com/pw/AL9nZEV1KvHePI4R0pgXlm184DZTXBLjJyhgFaTzRh7oe0RmX_9tY5s60kfD9DJm16pUIGMIHXtPnxjqskcTwi87-K2Rv5iZ3lUEi5L3G7usxtbAKOH4Axz4A_q8EZq2R8fTb3GxqYjKJfYk_FUwSir_q1PkHg=w2108-h1580-no"},
      {"img":"https://lh3.googleusercontent.com/pw/AL9nZEWugHRk4OD_cVI9kSqzcokj27-BOEZpyHpzTBajFsfSy6bwBl871PVfGBeaq7wkAh-AfskZh2vqyVa5BuClQd-Cn1vb1swnIJPRqrQaEIe1VRCZmA417bZFv9-579Cf25SJg19t48F8M_ebZV9D2eBhDw=w2108-h1580-no"},
   ]
},
 {
   "Name": "Maluaka",
   "Tags": ["Beach"],
   "Lat": 20.646171,
   "Lng": -156.443137,
   "Status": {"visited":true},
   "Pics": [
      {"img":"https://lh3.googleusercontent.com/pw/AL9nZEWxxwpxiaelapeJWkR71blbt-Wc4Ot4Gk5nw3H0aoqpSrXBW2EjsnXG6g8_j1yh8Orgd26kelOK8VuitZkDKmfC5OHhUK2l8Bpu9PxGjzW5qCQFc-6K2Z4hOQHRM3sIbMMO8-D2Hkf69nIyg4tjqmKR9Q=w1187-h1580-no"},
      {"img":"https://lh3.googleusercontent.com/pw/AL9nZEWkz7KOoINZJFsDtG5awlk9oLN5tBFyjsyIVhoq7q4rqtxCTdprP1DFkDDFhdi3Kd9RzXJkGyY1tD1pmZTL8BUSuJxHhZa_7yH5MDOvwS83Gn0IMUYK0ptkj6Cz-Mk8xsHBzdE37yqflNH6UtE0jgEIHQ=w2107-h1580-no"}
   ]
},
 {
   "Name": "Makena Landing",
   "Tags": ["Beach"],
   "Lat": 20.654016,
   "Lng": -156.441016,
   "Status": {"visited":true},
   "Pics": [
      {"img":"https://lh3.googleusercontent.com/pw/AL9nZEXeRShZhaA3RfVLYqY51ZoIHUf3cUFdYuXxkOGxTg3RKExA208tc5Rmggim3Yd8B67QZeDwk-EMSqFimggQ-yg8S1fORJYjC86-D-LlKuv3MHGRAmBSBETD7---ZSp93Lxwh4Wfl2NxFcF8qiPks8jwVA=w2107-h1580-no"},
      {"img":"https://lh3.googleusercontent.com/pw/AL9nZEW5h5pmhUf9V71gYi5SjYmmU7nYBQxEJf67zJ1y6iEQHCl5CekudYfvu9_Dwv8NXyb2DctJa45eTl13wOIR517dS9q5NPyemeOhQ1diQ6Sggop6pUe-cbFDSAzaqHbxLlQI1ATYf5Hxgp2Ub5BrnJ-KSg=w1187-h1580-no"},
   ]
},
 {
   "Name": "Changʻs",
   "Tags": ["Beach"],
   "Lat": 20.661338,
   "Lng": -156.441791,
   "Status": {"visited":true},
   "Pics": [
      {"img":"https://lh3.googleusercontent.com/pw/AL9nZEXfdID0dJgCVhLEwn6t-pq0as2JQKDtKIycMN-NeUVPrpYsFCc53unWD1ViblelXfPErlYFqADgncCgQJZDZhajfebAsreFIIzAT5XfOZXLt6VQXOiz_tPwOXKnr9nDZ-KXhZ0fXlCCM5tw7MLJOKNTyQ=w2107-h1580-no"},
   ]
},
 {
   "Name": "Poʻolenalena",
   "Tags": ["Beach"],
   "Lat": 20.66547,
   "Lng": -156.44220,
   "Status": {"visited":true},
   "Pics": [
      {"img":"https://lh3.googleusercontent.com/pw/AL9nZEWDnZaQ6ORJx4wTaA-Hzz2p06PpsnHXy95zuteMUwrq64h3fugs_JWfAP3fK3i596OqiXEkl4u7iw2ETNzuRbv9aBBUT6FXcnZMmU5vFCJ6MvIrLcauuiXgke_tahtr_z44y5S8zSs8vmjfkIm5Z-6Kgw=w2107-h1580-no",
       "note":"Can be a lot of homeless / long term campers at this beach."},
      {"img":"https://lh3.googleusercontent.com/pw/AL9nZEX9ITBxnwQ_KeBQ4tI83nrAIrjv7N5V92VYrQ8fIbuISVt_ka8p4bN_XyVuVDVikQaLIbNeOE7li2t3-xB4Zk6O25ba0XG2JLRqIaWMcAT41Z9VaUDsKNKcs81ssJi7r2ROv51Pyk2DtvBu7Io_Tcv5bg=w2107-h1580-no",
       "note":"But...is also a favorite for wedding photos, even at dawn."},
   ]
},
 {
   "Name": "Palauea",
   "Tags": ["Beach"],
   "Lat": 20.67074,
   "Lng": -156.44326,
   "Status": {"visited":true,},
   "Pics": [
      {"img":"https://lh3.googleusercontent.com/pw/AL9nZEUYtcw9pS7ycmpbG193sj_hOGBgHsJsNK3RiuUjO1TOxg1P5_TDFjcAQvzGBDI56PJW548EJqzID5ZTEMfL44alx7iwgRA1prY1-ZLv9h5wHnOD2_YkRugYknKwcb-2eYFtqhd8-nr1bcfUPvY2qm-ZKA=w2107-h1580-no"},
      {"img":"https://lh3.googleusercontent.com/pw/AL9nZEXSbbbIi0Ald-DL5fTTeMZ5hDbFvmTd24I40tt7EQNSX-A7SEFANnc0rP8D3Xex49wSw8rnWRM2VhMtGcApGKVOp3YCsbNMu3PQYN4pW6xwnD-YtNnn2sIf4n4kmJ9qO0f6iHzL_SKcUg-RwvaQf6OEag=w2107-h1580-no"},
      {"img":"https://lh3.googleusercontent.com/pw/AL9nZEVtFSJ1q-p6Mx1NKI2j9ajwlf5lYDeNp9MY99am-T_WNrcx_4v2DYxX2aQhszpz67KyUO5IUUbYbNp5XHdSQwlx-4__KO2vsgy16b8MKcp5xKDhi0iSWjE6wMgktpCMPmEc9xRUW6kDcjo__SsMuwQyMw=w2107-h1580-no"},
   ]
},
 {
   "Name": "Polo",
   "Tags": ["Beach"],
   "Lat": 20.674648,
   "Lng": -156.444237,
   "Status": {"visited":true},
   "Pics": [
      {"img":"https://lh3.googleusercontent.com/pw/AL9nZEUS5q_UhyAFg9MMVH1co8V4SGS-JHJfO8kWpdLOP1z_lGkaaEpH3KXCEs36peMDtWlVqnqKDeQXdKUyU3bME9rHBb97LMgfaEpHeGNEWrqPmbjTy2bzuWqXUbtQc_AaRW4lsL4ncEDEkgA80sxPVvMIag=w2108-h1580-no"},
      {"caption":"Not on the beach, but close by","img":"https://lh3.googleusercontent.com/pw/AL9nZEXDVlTKzP5O0myaKJA_4XEjTECS6WtaqjvuM4LlI4VyXnlPLQt2FlOjzkoiXuJHCUPfEHd4RL7dphmZ6Ss4f0QRifnX1xsZ6xWN-qDkRzXyd6ziYNrOZL4m5-49jnods-vo7-sgSMpJVrRYPtal9byifw=w2108-h1580-no"},
   ]
},
 {
   "Name": "Wailea",
   "Tags": ["Beach"],
   "Lat": 20.68257,
   "Lng": -156.44382,
   "Status": {"visited":true},
   "Pics": [
      {"img":"https://lh3.googleusercontent.com/pw/AL9nZEWrXifIg2_hAfWwnqCCCHF3DKwGKdi0igGfiypu4qYzq5F8J9FhluHGqdzhD_ljGit0zc37n8Hs-R-ekYnh0YlqXDkMjBD1pANGyz51fYe-bI1z-C65MwnVrpAYAtvP0h-AG-QBocIokR7Pyc1PFjRVqg=w2108-h1580-no"},
    ]
},
 {
   "Name": "Ulua",
   "Tags": ["Beach"],
   "Lat": 20.69047,
   "Lng": -156.44405,
   "Status": {"visited":true},
   "Pics": [
      {"img":"https://lh3.googleusercontent.com/pw/AL9nZEXyNwCHGxGQ9vjkv5-tD8TUsgkHThvWFG6uP-xlHKcXYsdNMa3e9waacmxxokjz5yzuY6InAVTHT_Ourp6Xb40RSzgVCQiiSHlVXNe1jthLwcsJ1CCmdlW96dWsl2-ZSLEtsRkjWZsCTBKg9lDqQb16ag=w2108-h1580-no"},
      {"img":"https://lh3.googleusercontent.com/pw/AL9nZEW5XKLMMLg_PK2X54v3RIFdFWBfpAoHQDWkHbdfA8rbTVhjr-aPJAzIW7WaILH7ZGP9uXBoYOIhtjWMn1D3R2zZ3PpoQy8F_guVtBqD5AkySGWUMZ3C1VXQqKaLuM1pZ8rIU7EOCQARdFzbx2IvlLGSFw=w2108-h1580-no"},
      {"img":"https://lh3.googleusercontent.com/pw/AL9nZEVSHBjjTa6tVYcuzbpJkSA-xxnYgxrwbutMcuNLqBQoDtPKK56XfWCAvPS5EGWvHTQjVgkzZU4BBnLEmT9bZrTP2dceMSrXrFJPmMSvfPGsrdho1WeYTNaFnxrb2nalveIl_9geyk3OaKVl3AmLWR8lLA=w2808-h1580-no"},
   ]
},
 {
   "Name": "Mōkapu",
   "Tags": ["Beach"],
   "Status": {"visited":true},
   "Lat": 20.692903,
   "Lng": -156.444975
},
 {
   "Name": "Keawakapu",
   "Tags": ["Beach"],
   "Lat": 20.704288,
   "Lng": -156.447008,
   "Status": {"visited":true},
   "Pics": [
      {"img":"https://lh3.googleusercontent.com/pw/AL9nZEWH_YUMuLX-cgn3zCK3Zh5uUKWxUFWp-12fCpqxhy_HpGC_PC98HvJMRgXKXCeJrSSizUtZI3DALij1N0ZY2Wi-kx_FuY9T7x19AYsZEEN6P1PdVLKAVdHkYCnOZYmUmkOpm7zU3ozS9dTkEuYQfkQXoA=w1186-h1580-no"},
      {"img":"https://lh3.googleusercontent.com/pw/AL9nZEWmBhFvno7C73v5FF8kfWcrbTICOTwwznOPanaAHUozPgvOfLzH7FX1HgkpFv1HRBEUNrz4enNIrtAeYcJCHdg6EYZai5CW01A08ic5BtQf2W-raaGOF3zVNZxrCRZakx17ZlyqKCZwkb1SXHqy8iFriw=w2108-h1580-no"},
      {"img":"https://lh3.googleusercontent.com/pw/AL9nZEXjuV74-uRBVDNAlnvmukNeSYKA3D__bb2H5XOigovKOJaQG1F-l2uAn4lJHTNMzRihfBDuzYyrclt9ms6OjjgVpUfZJ0KV8S3Syup78qUS1nxGqgYbYNNgfWE-bST7m8mEQa5WOIFYzojN6b3A9oUEPA=w2108-h1580-no"},
      {"img":"https://lh3.googleusercontent.com/pw/AL9nZEVMw-k4zZis_psnQk5jHRC9L-6PPVwORCR0e-n2YVtbLcIXj2dJ7l_yk16sGllG2Ty5JbhBLB7rcXU3A7cUwHrEYFi9EqI4hU5nBzo3eRYhTn7MrX5-xxI9GbJnjexq6VAkU3rFA5QryQgeUq52hy7Zxw=w2108-h1580-no"},
   ]
},
 {
   "Name": "Kihei Boat Ramp",
   "Tags": ["Beach"],
   "Lat": 20.70781,
   "Lng": -156.44623,
   "Status":{"visited":true},
   "Pics": [
      {"img":"https://lh3.googleusercontent.com/pw/AL9nZEXdFM50llw_BF84iJQyxFlwwbihXmBFnEsI-98f9ZNYAP_0JSDQwOtYbJ1idWqG_vRk90mUhNDmuYShvKwZ_QvCPCvFmebT9GDTJpe8JAs-v17ijkMB51XYYeVgWcWGE6pd6LrT6Zken-gd-S39lg51Jw=w2107-h1580-no",
       "note":"Whatever beach this was has been cut in three by the boat ramp and the levy. Lots of activity in the morning, and not the best beach, regardless."},
      {"img":"https://lh3.googleusercontent.com/pw/AL9nZEVJXJYR5bjQKTyDBlifkqtgez7HlX7S9I4Uu1NAWx8z63fMTdgnt_-bqY8h6OLQEYEKway9GMf4mBBrnQZ8htK2PYMbNtnSUTEnatVuKwJCWl3t6f5TN6MqyBnrjnarSx2HzLxd18R2OUu0hgjwIo_TEg=w2107-h1580-no"},
      {"img":"https://lh3.googleusercontent.com/pw/AL9nZEWWHid0chEOH1uL0HykZvfm43FKBRAoey_aeqwPB9VfEnTmaV8EOhl5Y7jvTBV88EROPgdrgP6-K-NRjyDIdpqsxDZbXpyMcTsHBgUDwz-0s6LSeSNNKlgcVWe1VYs1niF0N3HGc9_miE520rQsHGaWHg=w2107-h1580-no"},
   ]
},
 {
   "Name": "Kamaole III",
   "Tags": ["Beach"],
   "Lat": 20.712937,
   "Lng": -156.446229,
   "Status":{"visited":true},
   "Pics": [
      {"img":"https://lh3.googleusercontent.com/pw/AL9nZEVXU9fcQWseZfQ9OiebzyD2hAEsWcNn6fPgc5diHu_QykjbRW5WbsTjqWt-kCd0hCfjlp0tyRM2e7SlgBRWl3IRx9THuuywbT90bz9uSWVzB-XgMl-esCEHrOdiOBbSRqo0016WRrZldibv6PHDlLGXDA=w2107-h1580-no"},
      {"img":"https://lh3.googleusercontent.com/pw/AL9nZEUnjSUx5Xs5H2N0CUgHhEMrroeyqDdtJh20Z1NBsWx0sDuoUmUMlPpg3IsGfrbWlw_c-Fot2i3rkhl0DyRpTTxXigvheYgtkeye-xe6umYFTzSiExOQ_zt3r8EOonyGuwf_adsWnA5q_JodGm1lNdT09g=w2107-h1580-no"},
   ]
},
 {
   "Name": "Kamaole II",
   "Tags": ["Beach"],
   "Lat": 20.716366,
   "Lng": -156.447189,
   "Status":{"visited":true},
   "Pics": [
      {"img":"https://lh3.googleusercontent.com/pw/AL9nZEWK6mhC13U2GrPkbSRHYGiHW-jRJiZF34BNcaaOOGk2A0vqy42YDHKN1ClqWGq-TIqSfO16xuhqVX8-O9Auc4qJFWffvEPYuMJTnO_U-AHjlDT6W-g-3vJ1ZuzrjH1joLXFrX2zacm6Q3PnxxPEukpmRw=w2107-h1580-no"},
      {"img":"https://lh3.googleusercontent.com/pw/AL9nZEVHNeAvULDUTFfxLPD4mms5l2pIXm5ES2s9-ReNUeHjrVHe5gOUnOrKCOkYbon06frZ-QVV3lp7Tje3gw10ilxBG_WJIyxYSJAzZjaq7-RMm1Xsebz4K0CFELWRnloIVLvvntzVochHKW1twbKwP_cNLw=w2107-h1580-no"},
   ]
},
 {
   "Name": "Kamaole I",
   "Tags": ["Beach"],
   "Lat": 20.722384,
   "Lng": -156.448524,
   "Status":{"visited":true},
   "Pics": [
      {"img":"https://lh3.googleusercontent.com/pw/AL9nZEXOPY71FkDC5re0iMvl6cyUuGYcf7KWWcsTRuuqDxKXiOvr714uSy4p7Xx5L8Fq464LViMEmTGPmUbLN_GzFh8H9ktUFvxQPCxyuMGOSI5Cj-VoTGYmItVU_Ox6tnv5V6enjSMzBuq52Pqj4mi3-9GcBw=w2107-h1580-no"},
      {"img":"https://lh3.googleusercontent.com/pw/AL9nZEWgQoMjL0RbKwbOVajcmxmlZOcO5zZRF97g-2yR3EQPmN0YPtBlEDT-QKYlejmSBPhTqAW_6PPkDixWdZnquhKA_XeI1EwSsD6ch_s8iq9wXmS0tFiTF8jrlbe8ODLmKn81RtQjtnfGKSs4ng3JMgftqA=w2107-h1580-no"},
      {"img":"https://lh3.googleusercontent.com/pw/AL9nZEUi69MnwCJIRzOkkOAphTdUZ0SMKFpEXtnqG3huVFCMIshmEKsNh4dFHZ6aRByzNrowZXy8_z7MVEk3tD6rE0-vASWjoS7H3CBnEmL9i3NU5RJM7Wz6eFdszYXm5kkCpczDkZIS2b3YMHXENk_SJx04EA=w2107-h1580-no"},
   ]
},
 {
   "Name": "Charley Young",
   "Tags": ["Beach"],
   "Lat": 20.724837,
   "Lng": -156.44958,
   "Status":{"visited":true},
   "Pics": [
      {"img":"https://lh3.googleusercontent.com/pw/AL9nZEXUuG5dr9CY5vW9sm3RbpEqk91zMLnhVlg9XVhwr86BKGFok_5qpsC9GCTYlUhssxwDY9SWK-raHFcwFdB8fLy0yChK1MSTPsyOeqC-_PZXjSBTON205wouCYjLZkQ8GVS9b0ygiVV9Bz60k0Yvi33lcw=w2107-h1580-no"},
      {"img":"https://lh3.googleusercontent.com/pw/AL9nZEWqBUFmTa-CNhTeLEnbVQM6mJkj8293M1ceELDxhrv4Mhb7hXgH2b-_ICsIUrTeo_VOH5IZhVnPZk9kmoiRgMlZtS26PfWy7EYVp5XYIGprWdeIyWuU5VN-eN3qA-LuQxKp1S5_nRgFkjmUjyKwzwH_tw=w1187-h1580-no"},
   ]
},
 {
   "Name": "Cove Beach Park",
   "Tags": ["Beach"],
   "Lat": 20.72747,
   "Lng": -156.45062,
   "Status":{"visited":true},
   "Pics":[
      {"img":"https://lh3.googleusercontent.com/pw/AL9nZEVKv6LP-iqO-K6pqrJZRE6SeRWhvXRuOhyK37yeVOx5s07Ow7TyBoOK0WuaywfAH17gzGLdxjOFG-Y3Qb4OvlcTVSjJ6D78dwL6KMwncDyFXnPQihdGqfhZNEwrKh1QEryS39tad3nfS0-sRPqLCXzTig=w2107-h1580-no"},
    ]
},
 {
   "Name": "Kalama",
   "Tags": ["Beach"],
   "Lat": 20.73144,
   "Lng": -156.45302,
   "Status":{"visited":true},
   "Pics":[
      {"img":"https://lh3.googleusercontent.com/pw/AL9nZEXrEFAdI4XsdX-_uboDCSyIGcT_zcBYj4Zh2MjyQvYX5cIGkniolscqtAdMC5KS02D_hto4hxgxaYYDF6U6DvcU-yoKcTTc4ix8zjkGc6owbf0fmjDxh_gPlNrTCLGtWgKiceiZQdX-mpAc49KM2qA0nQ=w2107-h1580-no"},
      {"img":"https://lh3.googleusercontent.com/pw/AL9nZEV3aPVIIi8IaAgW8YAUm69s26qCK8bn_JmgaghRNRNbsFq9Ymug4WSGV08UFAOC4X88CTzbP311lZVuKg5I7H928x2_IXdcBTY-WWN03Vs2IdtbUHPHxMhYWCXkG2-U6Fd99EAzHlvT8hxbZsdFV0yu4A=w2107-h1580-no"},
      {"img":"https://lh3.googleusercontent.com/pw/AL9nZEWdLHf2L27EZ7r4afPLXmK-YOWllWXAoX_onku7SieNs6HV1SGW2FI102qV1dVNXW9m9PfuWeFHqeHXzzqzSsGX0pJ9_0hu3I_BXbTKh_h6G0EPmTw_HDR0l8WXwoCZqDrGfqy60vqvCX5EXXjNOL9oqQ=w2107-h1580-no"},
      {"img":"https://lh3.googleusercontent.com/pw/AL9nZEVuSoRj4Qcz1rZg1G_WUfxxhAFw2wGVVAzIv1bIW1tOoxwA131B9O8za3xj_xRE4b674IsHHSGh1k6SUbk4a86enpFFjfLUkzY7Wg2Yk2Ohu1BdpKKmnVL0MwXGGg5befc3TTolHLAM7h9aKelpNSQYSA=w2107-h1580-no"},
    ]
},
 {
   "Name": "Halama",
   "Tags": ["Beach"],
   "Lat": 20.73643,
   "Lng": -156.4564,
   "Status":{"visited":true},
   "Pics":[
      {"img":"https://lh3.googleusercontent.com/pw/AL9nZEVgbPdTmnQsZqe8-KUc2-W6AXn3Q9dsyg0Kxu-Fa7aU5Vf5jaaMPLEpALfNcDHfPB5smYibN1_EwqXjvqHfl9GgwH4AEMhtZgM2Uf3ucqIpP8zaxyk1TfJs5Ez_4o98pHyXQLGbwUL8Sq0U7Sk1uWW4eQ=w1187-h1580-no"},
      {"img":"https://lh3.googleusercontent.com/pw/AL9nZEUUxRNcC6XDtXZvWEBjI0fsrHrNyJ3ppC1METsI-MpY9riqoFcgMI959zSN6-p__5BCrPIyuF4_HSynLyLv65-uixBlrvO3Kw5JTfvhgwYcW_h1Us9iItriztzt6gJSSfj9oiTRPs-fl-8FwR6BAhhQ6Q=w2107-h1580-no"},
      {"img":"https://lh3.googleusercontent.com/pw/AL9nZEXDdgyQSGzrIIemIG9xI-u1B2cr1-LGokPIRvhep9tYEuI4Lo0O6vteaYBsWU0NP7YI7NAeMoRP3nbFaCGHAmgeesrh1cff4FvAC4ymZjVdsJH1Qz-6yKhngA2sLx3n0fcGQeAjHmFEQ9YPpzu_QZd31g=w1187-h1580-no"},
      {"img":"https://lh3.googleusercontent.com/pw/AL9nZEV1QaXxGK4P8L1UnCVZPshwDMB0JPi0NK-ylzdz2LVgjFwdFQLup1ywGsPxImZ0jTMbu2OXH-dwu0nEwJPDujPzI7hM2k57JX8A-tduQ_KrQ3-NqSW2mA2lO85vAyD2G4tng-1V2wv--PTWkrOpDPpkEw=w2107-h1580-no"},
      {"img":"https://lh3.googleusercontent.com/pw/AL9nZEXUBHqS5QFIzYNDwsrCpW7LLYA_i2c_rJoNHj1CsOv9S78v5o0cqfnuIYk-GbSVopshH58WplYDcabuarNlvTgL98ISd3b9MRjeueTsVxSqfgdNGaQCVZU3YvZ9KkTnlK3_HVmpWutYRRwyUL9YLdfePA=w2107-h1580-no"},
      {"img":"https://lh3.googleusercontent.com/pw/AL9nZEXluQCRzzttM6LWx9ZUC13Ks_STYIdpVnvCesY4HBjNyCvzIAPxzWsPBgBRn0444VTzss_J2p7sTMQ9UApQdt3fUPPpA0WJngdJurGfUnQEkROAAFGp53BPv9fvqu33t0ZMYXHhFFsdEPq7migjqBGBKw=w2107-h1580-no"},
      {"img":"https://lh3.googleusercontent.com/pw/AL9nZEVC_Z7SMnDy0tt4-LCFDwSibmdy3T5XQ0rNFBnjpGNA3WRy8SpjwWfOi-dzC74_zSDFQwe7XgpQ_ydMBk0ILrvX-XSktXPWAA7CZGD3ZCjQoRHJIB8Utl2JFkIdU3SOjdkOUmmWdpFiWVQL3wORg6q6Ng=w2107-h1580-no"},
   ]
},
 {
   "Name": "Welakahao",
   "Tags": ["Beach"],
   "Lat": 20.739717,
   "Lng": -156.456651,
   "Status":{"visited":true},
   "Pics":[
      {"img":"https://lh3.googleusercontent.com/pw/AL9nZEXDIgRQO-pnXLdh-h3PEOhJxC8Q-WFeok_4t9GkMTlXae1ZDSUmS833KN4MH4f3-alMXvHQJnAiulJVkmZghaH3PFOM0TXwCSCrm8qOHtAq5qd0P7MkuTaLDMjVgmwHCTmuC4HUIy7NK_R-3vM8GtWz8w=w2107-h1580-no"},
      {"img":"https://lh3.googleusercontent.com/pw/AL9nZEU-666DHIt0wX-lvNnp4P0zzXv8OeKlJvvzrnR7hGAa6u28brm5egLA2FBuWnM-EBxVwaGzHwZyLoQV932rmyQz2Uu68NqlcHtacs6pFd8A1ztiU_rWpVAKJstQmM__IzOdRoWbbbjze0lAO3jcHC3LKA=w2107-h1580-no"},
      {"img":"https://lh3.googleusercontent.com/pw/AL9nZEUiGZhSs3NiJE2eDx8lIRC7omGL_yDDrqk6YqG0OYZKZ23uW-TuIhVJg4iIV9JLAD7f0uYLNMgpIWcTzBJk76EaTY_kABLwXrvZwLeARZ_cMLZMxRRxP8r61hBz62gLnCHy8hvjNzvjXj1-4OBjS1TMmg=w2107-h1580-no"},
   ]
},
 {
   "Name": "TBD (Waiohuli, Kihei)",
   "Tags": ["Beach"],
   "Lat": 20.743534,
   "Lng": -156.457467,
   "Status":{"visited":true},
   "Pics": [
      {"img":"https://lh3.googleusercontent.com/pw/AL9nZEUJixrk5f2fps_MXq4TGYPYJG5Phor1As7AvDUahxBHuuWWd4tiCiCVd-uYF7w28sm4UXiyJgsVXsHZC-Puqc9-IylnEdkY14eUzr81B7txS1jB-IZk_986TdkjwVE5ftFrj0jokhbqDX0GUndwaAuMBA=w2108-h1580-no"},
      {"img":"https://lh3.googleusercontent.com/pw/AL9nZEWPJaPU_E95tQkYZdwLDQF5HNibzwUwnYU-QeCen-1hFjI9TUXUFWj0s25QN_Lq9XLveC0Hnt0eBTAgJWzeCFN6pKN_XwvrnPPs-Qnt1VSogBDiI3jVksKtK0AmbYZ1cfRXANHKrTEBw-d0JxEbNFQq5Q=w2108-h1580-no"},
      {"img":"https://lh3.googleusercontent.com/pw/AL9nZEX9ekJx8gn0tew3wokYwav6Zu56TjOUvjjCuLlWH03ru6EmiNWLScd0aDdNuEESrlVWWbcMFuppQoeoPueJIoJ4wkfunVr3KzC-Nb9Y9NtlqjB2WhZiSQNztvhI-x8HmB1IyN4PKbdeedX09WwZmSM1fA=w2108-h1580-no",
       "note":"Sometimes I just have fun standing things up; got some funny looks today."}
   ]
},
 {
   "Name": "Lipoa",
   "Tags": ["Beach"],
   "Lat": 20.74971,
   "Lng": -156.45886,
   "Status": {"visited":true},
   "Pics": [
      {"img":"https://lh3.googleusercontent.com/pw/AL9nZEV7qjLVxf3tdRGTQyugkl3-KttqzmPoVM84K80bzccnfRZ9abOTPu5EGXuNXKaPzJIjJN1hXAcKVLM49ff3sMTV8m9tcmzU1Iuww4PmnNbHl8vZJ4qtPv1n8diflqgXb4DFygGDxfoU7diENxSYBU3-Og=w2108-h1580-no"},
      {"img":"https://lh3.googleusercontent.com/pw/AL9nZEWZptes9lNNBjlbH60r7iOC1u0fYdYolh7mfEF_q9C9A06TnBGxsH899cBtI_lGoVY0MGbOiqQZaGbW5SuEDOrbbyk06FmM6b4hb3ZlunCJfxOhb1mYIgm3Qaa4bc4KOJzmnnmJ9hv69in49Xa4l8Sdjw=w2108-h1580-no"},
      {"img":"https://lh3.googleusercontent.com/pw/AL9nZEXIYFOd1GuP0Ce3KLSQDIQJb2TLvOZCQVhxZxeD5uHSRSphYtxcGTDCgIyPRsZPcc6IsaAg70SLZMuTZ1xIAMUurP6_Bu-N8k4LWrbhZ4U0H-2QrJ_1cbQ-0a4plrOtdYkrHy9UVxMyh0kQhGv4_eqMhw=w2108-h1580-no",
       "note":"<p>On the weekends you might find some local fishermen here. I asked one group what they would catch in this area. \"Anything in the Jack family, 2,3, maybe 4 pounds\" was the reply.</p><img style=\"margin:auto; width:30%\" src=\"https://www.floridasportsman.com/magazine/img/fs/fish/species-lg-jack-crevalle.jpg\">"},
      {"caption":"Snowflake eel waiting for a wave","img":"https://lh3.googleusercontent.com/pw/AL9nZEVKF5EFZSoWc2EW8DiYxf1P5pEcblx9TJeuD6zNxYgzsJ5_gy5iyDC5CPAAgLs1iR1YGJ6b9wkTscOb-v8RjDRIEsBd5tSiMPGzZX18uaQVUGnn1D4viGUe7d1syB3-DaeXcPXVgB2r5CJKgIqCx09RyQ=w2108-h1580-no"},
      {"caption":"Lots of turtles around here","img":"https://lh3.googleusercontent.com/pw/AL9nZEVoXJVbh5Vgseq34hxQ5bkBjLrFSdW0JoAta9A04PGXkV3uMKnbt4W7LzmogicJjqPNjFQkFL2N85XlKtDBhUidZ8lMQcE6_c6V-9gts5kTOCiZXRghvGt2s8uXL-1b8fXaQ3NeZlG2NdvtkQPEgKl6kQ=w1983-h1580-no"},
      {"caption":"Turtles come in late evening; low light making pictures tough.", "img":"https://lh3.googleusercontent.com/pw/AL9nZEXKOJW-86afHlJqwTVmg_By8NiVXu3BpPgkX6PTzxPtOaIjoAmYEZxPf9CsY8iQST0dEs6ye8OhDkTu7SRGoZzS_aiavZ8c6jeptAP0vIy1xBGNQYfSuHDbxnoL6McTAvK9BRmQmpZ_BgIokgLJRIaIag=w2492-h1580-no"},
   ]
},
 {
   "Name": "Laie",
   "Tags": ["Beach"],
   "Lat": 20.75272,
   "Lng": -156.46037,
   "Status": {"visited":true},
   "Pics": [
      {"img":"https://lh3.googleusercontent.com/pw/AL9nZEUpkWjYeT1MqoPtywwQwd_1I5gUEiowh1WLL31IAHTE2ooHzcZLWrP1bTFU7WhwlxaT-kAFSVokSNdRPa7nTeEdCDVPlpYTDB6B3Qnm0BLk_olk8YJ_yifERo5qeqZ1AyvqONSOcd6LdsD4NfME5ukTaw=w2108-h1580-no"},
      {"img":"https://lh3.googleusercontent.com/pw/AL9nZEX-l_iUakB4yL720aLQylmFd6edNqAS7N-szeBOXc8LKFG7G7QIxzg-Yl7HIIE5_kyLhWM0NLWhqzMBnqBesy_SXGuvBzVNXltXtSYKSf-aGGh7iC2YRG2QTvHQkw9WbTPZ2aD-JZN0C-9l92qf9hjn2g=w1186-h1580-no"},
      {"caption":"Seeing refuse is rare in Maui","img":"https://lh3.googleusercontent.com/pw/AL9nZEXWUuf9cozX-KvMZms1SpDCftj0xn4rSjuzJTmBFfCLqcIxByLk8pRatZfU9oPZRXGRTB9O6YLXaVEkH-jqPP1xYasseikOdqRixPx6hrJennTEAH3makM0KL2iv32MSquuwoOl33wwbMYlfFmFtjlaSA=w2108-h1580-no"},
      {"caption":"sunrise","img":"https://lh3.googleusercontent.com/pw/AL9nZEXp8TW5Wr83g9Rh9op25DUtCSPdM4pnW_8VfeMBemwTVkmXS65BpDJsG2SCiZejclESxLkFMXjiDpZnaekmT79h5pQn-Yfy0jpjCEHA5G_rVAg1ZtHZsMkXHJpzRIt1KZlsprmsAtENs7r_CCj8ZVn9ig=w2108-h1580-no"},
   ]
},
 {
   "Name": "Waipuilani",
   "Tags": ["Beach"],
   "Lat": 20.75769,
   "Lng": -156.45986,
   "Status": {"visited":true},
   "Pics": [
      {"img":"https://lh3.googleusercontent.com/pw/AL9nZEWpCrd8gbfv6RkjQ-Uqjtr0tlXF6-4bPPLBA7eqShX1QXJd7hGAT8XwIS8bNFruNn9O86jcMLtkrkCSpKxLe8GvERGayfSJBT8agivlIYkzmkVDBbVW6HFZiBg1yWPN8DuiUIRD8dAZamQNHFCzYg1sVw=w2108-h1580-no"},
      {"img":"https://lh3.googleusercontent.com/pw/AL9nZEWPsF3lCtnCbymNz9O8gKo8Z5Tfhxc4SPTzToI3xF2yHqehryvJEgHuiM0YOVmC7doEKo9G6nXkJ6veKQdNlkKz6Up7wuH5ThK7eqBFOsn0Ce5F2lxitylKEEFZm17ePBQatiLqVJ_0aVr7qGqfMCq_bg=w1186-h1580-no",
       "caption":"Pincushion Sea Urchin", "note":"<p>Although not obvious, still covered with spines; don't touch these.</p><p>Beautiful enchinoderm with five-sided symmetry.</p><p>Lots more info <a href=\"https://dtmag.com/thelibrary/sea-urchins-mother-oceans-pincushions/\">here</a></p>" },
   ]
},
 {
   "Name": "Keaka",
   "Tags": ["Beach"],
   "Lat": 20.76194,
   "Lng": -156.45943,
   "Status":{"visited":true},
   "Pics": [
      {"img":"https://lh3.googleusercontent.com/pw/AL9nZEVbX0Bo8eAAxu6-0BFvnB7QjqMf0AfPCa03NfBcOm-GdSxUkIgkrBndMIMjgyK1LvEukRaXUvDVUrsEIWxUouqBiJQPm_OHlSQr_-qye_UpoIBx-zy9BSjj4PdU9zBsrP7CdebLnIYbVsBvac5tgEEqiA=w2108-h1580-no"},
      {"img":"https://lh3.googleusercontent.com/pw/AL9nZEV9sFqRZZ3Al8fMr2xMDyr07nDAkjXoO1fJOJ_WXHhT8FEC3gJJ0HWoKtm9xZzazzZfhdEad-CFa4Nnfw7hl_hkEowcQbbR06ek7n_UJuS5x15OndZegPbuYo7bSGgWx8ivC8ScUBvYMv_iozPrVIpIKg=w2108-h1580-no"},
   ]
},
 {
   "Name": "Kalepolepo (Fishpond)",
   "Tags": ["Beach"],
   "Lat": 20.764273,
   "Lng": -156.459153,
   "Status":{"visited":true},
   "Pics": [
      {"img":"https://lh3.googleusercontent.com/pw/AL9nZEUkPuym5kiL28vkkJ5XCZ05hWWWH9PQIs9_c1bGIwxL7h72ZD6THqc66TJqZ2C6R0CsZJHUgfZ6exgCFcr7tSuA6WXISkHM-Uw4gCzMvI39owiMxScMDAcK_o6sgj2PfdWn_UvGby8flDlz6bur9aEabw=w2108-h1580-no"},
      {"img":"https://lh3.googleusercontent.com/pw/AL9nZEWS-jW_FI008fdDSsSwoEAQYYBFIV4_HvEukD-y0Prdyat-Wy5Mt_Pxaf-k5KJDuM9uNXQ6P2KplUD0oNEowNdLjXJqIsADcYcwEmuotEYjlXP6OIejLoHVKUcmfJQBNhjet9GJCuTpgV49b2p-zr1YpA=w2108-h1580-no"},
      {"img":"https://lh3.googleusercontent.com/pw/AL9nZEWdtDPdsZQ1IOhJhb2hdmc9AsaDncsqVoe6X3ZiJQLMf0Yn13YhsCzcOEJtyBBqpEwjXIJjtBziDt7ccyB9acVBgQvUYM4nsDpSwWNu9iy_CpMQWutmgIW0fhZ45ZjRJbPm2mUVt_sVjs0AOAufXHeYkA=w2108-h1580-no"},
      {"img":"https://lh3.googleusercontent.com/pw/AL9nZEUkvSNvgNIWEw8M5OekiV6FXEpatsxvX0V-p5v6Qc-Kwe6FlRQ9i34dl5MY811Q2e6hu3olxrJrX45w6WFQglk0CEay9OsKQv2KmrsVLjKCN9e6yELfrx6xyuRLQ7ItqOIeRJmMhdMZlaXiTTdo0kvOwQ=w2108-h1580-no"},
   ]
},
 {
   "Name": "Kaipukaihina",
   "Tags": ["Beach"],
   "Status": {"visited":true},
   "Lat": 20.772012,
   "Lng": -156.459903,
   "Pics": [
      {"img":"https://lh3.googleusercontent.com/pw/AL9nZEUmaorrZFAaZRpiJG3LTiqCpgte39D64i9KdLwrfkEnlotB99UMYA6idT3JKanEhc8vaiiZSBo9PqSYtBLxt6CT6zPtIOOuabXEkoPTzGvYIuR-mkwt_BJU8nMTzeGBUzNO1TNkiQWIFnPFLb_fDd7i8g=w2107-h1580-no"},
   ]
},
 {
   "Name": "Mai Poina",
   "Tags": ["Beach"],
   "Status": {"visited":true},
   "Lat": 20.774577,
   "Lng": -156.460672,
   "Pics" : [
      {"img":"https://lh3.googleusercontent.com/pw/AL9nZEWXQCuBElAnYCvKgWxDYjqgfvgbZl3090L_mtXQM7tegWTwdOUL2GSiqq8TP-x_M5EiQaym0JeP6E5iLB7KjrIwGWRdcLVKYaIdxBxQeDuNiG0_cjt03WD9xBpSCHBhmwuD2CA76I1-QASir7r5taUFMg=w2107-h1580-no"},
      {"img":"https://lh3.googleusercontent.com/pw/AL9nZEU4Rfz3j3_JTlJ-4OBdwVAAkf87a5FYcvTjHQRcgC6G6wkCeWMxcafu2qU4wMXSOi2zahRU9X8asIVNfAQZErjW13bjeOkPF3ICkxS88Yh1bPadpNjg8vu-vSQgdVQnGuobiYSz9cJ1yqCDQM8ghnmkiw=w2107-h1580-no"},
   ]
},
 {
   "Name": "Kenolio",
   "Tags": ["Beach"],
   "Status": {"visited":true},
   "Lat": 20.780683,
   "Lng": -156.462557,
   "Pics": [
      {"img":"https://lh3.googleusercontent.com/pw/AL9nZEVtWxsbeeiruZahEMwwZDuvLOYUC0Al6N_rEl6eNcLpqag9ZKfgNwChNk0pgTdVmrr6zh9F5TNTZpqZrWeDyQo7lkMqMbvcY1zK1gbE-9gc9kQVPdHl6l1SMDPNtkb5BXs4akbuFETaJndjmKad7Jec-w=w2107-h1580-no"},
   ]
},
 {
   "Name": "Sugar",
   "Tags": ["Beach"],
   "Lat": 20.78548,
   "Lng": -156.46837,
   "Status": {"visited":true},
   "Pics": [
      {"img":"https://lh3.googleusercontent.com/pw/AL9nZEXJbhay0Pe_8tB5tkpJn_k5ACw_3cEouWvEuazWKWMG6aTHo2y7e3o_KjfLdqOzwv-ZRyaWjtsbtZhsKDRWL1hJaydgvCHjV0q6tkIllRXASLuDVmE4eloGLJPSFfDaN1DeROH4F8rGe7kY6GAK_g-oUQ=w2808-h1580-no"},
      {"img":"https://lh3.googleusercontent.com/pw/AL9nZEX8JKMN-Aqzt4XhOoRKISVihts26LfFZZu2IVNoXNcgfUlG1ayn-a_jrjslUeLI_Tot6derzdjKxpIgQJhNN0krZkVuVYq_2owh9NlvdCNP9tx-7PCT8bWO4-FbzUQxwO9OsnHkaSDULVTqVineGnztDA=w2108-h1580-no"},
      {"img":"https://lh3.googleusercontent.com/pw/AL9nZEWzzDYaIOuzBmZUJrJpiF-mKbzLkDoHmHt4h9FGyHLfgDW3QMhRYsbyFTQWz1Q8ME6miNibZsb81iX0JGAhr0JyzjDsb4MzrRpFwV-Brt9LYXpW9pEipuvlV24Wgrh1O5ZwKKGdPIP4o95s3vJE9xUPXw=w2107-h1580-no", "caption":"Launch spot for many rowing groups."},
   ]
},
 {
   "Name": "Maalaea",
   "Tags": ["Beach"],
   "Status": {"visited":true},
   "Lat": 20.793959,
   "Lng": -156.482869,
   "Pics": [
      {"img":"https://lh3.googleusercontent.com/pw/AL9nZEXGEumvX8JCnq-FfPc_QQ-WVKIcADg8dX5XsksaRzudnRDNDi51STZQvD2UcoJb_1bcbJudR_2KpH-3QHCYuJl27FusqNjvRQCji2UdIWbQiU4JHScNVNx9GO6K95dV9Rd_iszwpJKtlf7Kh3edlkEEzQ=w2880-h1507-no",
       "caption": "Haleakala = house of the rising sun; now you know why :)"},
      {"img":"https://lh3.googleusercontent.com/pw/AL9nZEV_E5e5Jpg1EQ4J184_vrcv_QV1jhV8qh0ALtRTwHufJe1R3WUIvtRc8srdx49Gs_nthBPoDeRmW2MDoi-kaXtVcfGrP96tm8EnLOftKsyCZPfOSsEzWUOAkYLbD4-w_tQduxuOXW_Y7Z_C6jKPFn-z3w=w2107-h1580-no"},
      {"img":"https://lh3.googleusercontent.com/pw/AL9nZEU4PZhdgO06JMCjcxle2xv-Rbx3xpi91c76xS87Mg3VkO_Fu2zO3v1aJLy8qKWy_MK54e4Ua85WPSLEWlaj4ZqvxxVO08xAsgHTjSc0LQ7BwSNF-AQM0HYXGqUcFqXtZ3dMGwaiut5am_NG4aG7qF7TOA=w2107-h1580-no"},
      {"img":"https://lh3.googleusercontent.com/pw/AL9nZEVjvEjNfcaVyYTLZRlyBxQK4VgrxsFRhAvD4Dd8qhA_ZE5gTFFXdq8DRAYT29q3wNrirxacXrxuk7QPVtTVRFovdl_VXB-STueuMXtZnQG8mVEGzak-OLXbTy41BdMCOIivgKYAb5XrW3VP2Ru4BwPtnw=w2107-h1580-no"},
      {"img":"https://lh3.googleusercontent.com/pw/AL9nZEVhD0v5-mPn6dFHj0HYn_2j-GIM41EkIMrTzmQVI_EIfoi5hzJYaiOKZ1ijkvIPpzJ6UMLI6WvBsFFsaTnxLiSbcFZqkdfyNFPz_4IjUQ0fkZGoWAT73DhLlQhMQwRcC745RG_LqVPZsQHyZzcFiJUF6Q=w1187-h1580-no",
       "caption":"Sandcastle Halloween 2022"},
   ]
},
 {
   "Name": "Haycraft",
   "Tags": ["Beach"],
   "Status": {"visited":true},
   "Lat": 20.79662,
   "Lng": -156.50322,
   "Pics": [
      {"img":"https://lh3.googleusercontent.com/pw/AL9nZEWr6Nz8FXuRmUZmWLz1OOPPQeBmU30YZeklZeQYOKNy9ev5ABhoJU_K87qq_a-NHLvAipELiRxGZMpgrPmYKl-8wzUcxdmApm2UkFX4VhlUzarP9kF1M5Fx8Qkuf3m5Kqnqe6ihoymoBwivpdetfiujmg=w2107-h1580-no"},
      {"img":"https://lh3.googleusercontent.com/pw/AL9nZEVo1BWRbHklKeOJrHVoYmhQjQhBEvnxVzFYI10ScZvYuHgsEFDOKaKA2fQd7u4O_6_Q5CPadKyFgzquKy331Kn3VJbHBCeRBlBRrJD6Z0NKhZNCPBBHD5V0MRRBUXKpgq-juOIO8v725z0tGAjXVT70UQ=w2107-h1580-no"},
      {"img":"https://lh3.googleusercontent.com/pw/AL9nZEWM5rsowl5O0FVB1r4wSze7zbiKuZ_azTN0Xf16EiBDNgzVINUt6QSDpQJFBib66syW2lRafnEa5b9uG-MnGjFINb-Ae5p1ZFawn_rvjaCN1HlPJMRbEbROdqKgtI0eos8sgxGpkJqzHocyWMyZm9AWvA=w2107-h1580-no"},
      {"img":"https://lh3.googleusercontent.com/pw/AL9nZEUXZs4nFLKtFLa54D9d3Jw-SPqO6h3pCnocINVo-QIBJe00o5OWuRty9OW87SH9rpInbwANRZ6RGK3FIB3stmbqKEwPpM5KgAfI4urgXhcm7ZQAD81_FXAFbNOVxBAvY77RQaP52UMqc-IB_9XmHCHCeQ=w2107-h1580-no"},
   ]
},
 {
   "Name": "Pāpalaua",
   "Tags": ["Beach"],
   "Status": {"visited":true},
   "Lat": 20.79305,
   "Lng": -156.57182
},
 {
   "Name": "Ukumehame",
   "Tags": ["Beach"],
   "Status": {"visited":true},
   "Lat": 20.795711,
   "Lng": -156.585243
},
 {
   "Name": "Olowalu",
   "Tags": ["Beach"],
   "Status": {"visited":true},
   "Lat": 20.809067,
   "Lng": -156.615868
},
 {
   "Name": "Awalua",
   "Tags": ["Beach"],
   "Status": {"visited":true},
   "Lat": 20.828315,
   "Lng": -156.635579
},
 {
   "Name": "Launiupoko",
   "Tags": ["Beach"],
   "Status": {"visited":true},
   "Lat": 20.842513,
   "Lng": -156.652798
},
 {
   "Name": "Kamehamea Iki",
   "Tags": ["Beach"],
   "Status": {"visited":true},
   "Lat": 20.86836,
   "Lng": -156.6765
},
 {
   "Name": "Emilyʻs",
   "Tags": ["Beach"],
   "Status": {"visited":true},
   "Lat": 20.86984,
   "Lng": -156.67742,
   "Pics": [
      {"img":"https://lh3.googleusercontent.com/pw/AL9nZEVnEcvmAIjL3BZF6TkgFoNpPRsFhLEysjHUyF1PGnfy61GA9ATqARjRB-T_t8pw8H-jpmGeb_V8WHPn3mvNf7OnxdbruU_mWdrQZyEr_kTVfEZxQ5ERxnzsTYS_P55pu1H1tueS8q_jkG_IycYLA5roGA=w2107-h1580-no"},
   ]
},
 {
   "Name": "Puuno (Baby Beach Lahaina)",
   "Tags": ["Beach"],
   "Status": {"visited":true},
   "Lat": 20.88288,
   "Lng": -156.68776
},
 {
   "Name": "TBD (btw Lahaina and Kanapali)",
   "Tags": ["Beach"],
   "Status": {"visited":true},
   "Lat": 20.90362,
   "Lng": -156.68547
},
 {
   "Name": "Hanakaoʻo",
   "Tags": ["Beach"],
   "Status": {"visited":true},
   "Lat": 20.90959,
   "Lng": -156.68877
},
 {
   "Name": "Kaanapali",
   "Tags": ["Beach"],
   "Status": {"visited":true},
   "Lat": 20.91789,
   "Lng": -156.69679,
   "Pics": [
      {"img":"https://lh3.googleusercontent.com/pw/AL9nZEUkAGqNXqttXEI_JRBQoOPTvgISJ9F098l2EeovqMGopUsMd4dpTTCaKrrBXpQuaktWfbuxYxi-iIQDiu98RyQnxV6vvMFjCb4QTjnjxSh9PsWaPZXXcG_vd581mGQqiszPaEjozT8ZotzIxgV3mbvm5g=w2107-h1580-no"},
      {"img":"https://lh3.googleusercontent.com/pw/AL9nZEWmi-C8QrPAgJ-_h8Cj3CKOCeJY9zg6cE2VBWhjHJbbmGqekzALZRE5gCHaugIB7-bQWrcTMjKUshFlTuLEQoA6a32KjWJ5qo1BJeI6ZAaoy0xNGqBYsQ02LoR88ar8Qm5WU4pXY6Er60dyH5PjY1-YTA=w2107-h1580-no"},
      {"img":"https://lh3.googleusercontent.com/pw/AL9nZEW1JpS7afIxNec3cy0Mjh6rLdD7qDZdvzP1Uc6L2zOgJ5LeOhZ7ted64iQ3GC0x30EtACM05UHOmBFq52AzA7eu6AOelkpUnsXZvWBn3ze7xhB7NJHkKOQat7mNPUVVIlVb9nnBbbepddiXIF1E61fdwg=w2107-h1580-no"},
      {"img":"https://lh3.googleusercontent.com/pw/AL9nZEW1bU1ZZHB4l7TPSj5Fy51711D4kRXE3mBjkuQBjHP1rWpP0-lvfSD4bb0ElIIq1gnfReIocVMDeIX6m1jn6Qrk0IRzIt54BmpursQhFbCQ7xAvAVfBH-a0aoOT8b7N2qMezn5b42_lUQ3NVnjC_8Z48A=w2107-h1580-no"},
   ]
},
 {
   "Name": "Black Rock",
   "Tags": ["Beach"],
   "Status": {"visited":true},
   "Lat": 20.92676,
   "Lng": -156.69581
},
 {
   "Name": "Mayʻs",
   "Tags": ["Beach"],
   "Status": {"visited":true},
   "Lat": 20.92891,
   "Lng": -156.69473
},
 {
   "Name": "Beckoʻs Island",
   "Tags": ["Beach"],
   "Status": {"visited":true},
   "Lat": 20.93294,
   "Lng": -156.69306
},
 {
   "Name": "Kahekili",
   "Tags": ["Beach"],
   "Status": {"visited":true},
   "Lat": 20.93701,
   "Lng": -156.69283
},
 {
   "Name": "Willʻs",
   "Tags": ["Beach"],
   "Status": {"visited":true},
   "Lat": 20.9416,
   "Lng": -156.6925,
   "Pics": [
      {"img":"https://lh3.googleusercontent.com/pw/AL9nZEUaDsB9FgnhoMuvVBoUmTrLIvxdeBALICUcarh1lqX5V4bQDzvRceqU20QUxbwCIGeSggqaplrqKVx7bJum2gLl9jJbb3Mnu35YSz9ze0Rz0iMKN2G_snHzj0heHybuFAOu4ljY20qPEIYDEVIBnd1_yg=w2107-h1580-no"},
   ]
},
 {
   "Name": "Honokōwai",
   "Tags": ["Beach"],
   "Lat": 20.95468,
   "Lng": -156.68677
},
 {
   "Name": "Pohaku",
   "Tags": ["Beach"],
   "Status": {"visited":true},
   "Lat": 20.968074,
   "Lng": -156.681281
},
 {
   "Name": "TBD",
   "Tags": ["Beach"],
   "Status": {"visited":true},
   "Lat": 20.97745,
   "Lng": -156.67792
},
 {
   "Name": "TBD",
   "Tags": ["Beach"],
   "Status": {"visited":true},
   "Lat": 20.97906,
   "Lng": -156.67575
},
 {
   "Name": "Kaʻopala",
   "Tags": ["Beach"],
   "Lat": 20.982207,
   "Lng": -156.673388
},
 {
   "Name": "Kahana Sunset",
   "Tags": ["Beach"],
   "Lat": 20.98496,
   "Lng": -156.67226
},
 {
   "Name": "Napili Bay",
   "Tags": ["Beach"],
   "Status": {"visited":true},
   "Lat": 20.99546,
   "Lng": -156.66649
},
 {
   "Name": "Kapalua Bay",
   "Tags": ["Beach"],
   "Status": {"visited":true},
   "Lat": 20.99953,
   "Lng": -156.66645
},
 {
   "Name": "Oneloa",
   "Tags": ["Beach"],
   "Status": {"visited":true},
   "Lat": 21.0041,
   "Lng": -156.65895
},
 {
   "Name": "Fleming ",
   "Tags": ["Beach"],
   "Status": {"visited":true},
   "Lat": 21.00461,
   "Lng": -156.65239
},
 {
   "Name": "Slaughterhouse",
   "Tags": ["Beach"],
   "Status": {"visited":true},
   "Lat": 21.011259,
   "Lng": -156.642011
},
 {
   "Name": "Punalau",
   "Tags": ["Beach"],
   "Status": {"visited":true},
   "Lat": 21.0223,
   "Lng": -156.62575
},
 {
   "Name": "TBD",
   "Tags": ["Beach"],
   "Lat": 21.02116,
   "Lng": -156.60961
},
 {
   "Name": "Kahakuloa",
   "Tags": ["Beach"],
   "Lat": 20.99787,
   "Lng": -156.5504
},
 {
   "Name": "Waihee",
   "Tags": ["Beach"],
   "Lat": 20.9323,
   "Lng": -156.498764
},
 {
   "Name": "Waiehu",
   "Tags": ["Beach"],
   "Lat": 20.92305,
   "Lng": -156.49284
},
 {
   "Name": "Paukukala",
   "Tags": ["Beach"],
   "Lat": 20.91062,
   "Lng": -156.48527
},
 {
   "Name": "Kahalui",
   "Tags": ["Beach"],
   "Status": {"visited":true},
   "Lat": 20.896052,
   "Lng": -156.479046
},
 {
   "Name": "Hoʻaloha",
   "Translation": "Friend",
   "Tags": ["Beach"],
   "Status": {"visited":true},
   "Lat": 20.89229,
   "Lng": -156.46939
},
 {
   "Name": "Kite",
   "Tags": ["Beach"],
   "Status": {"visited":true},
   "Lat": 20.89679,
   "Lng": -156.4502,
   "Pics": [
      {"img":"https://lh3.googleusercontent.com/pw/AL9nZEXcqXHdWdfr4IBcKywsWrLoCLWMPMBpDpBmbIHTs6kw94hiIaclfTJI5_whl9IklN2eA3DvVpdCb9A1EJTAUfO4k1xGAe3ZwgjnvjrRT3sk1YXo7fbZG2uMBwDp0uj1x74G9xiGzISwLMTE2m1BH9DeyQ=w2107-h1580-no"},
   ]
},

// TRAILS

{
   "Name": "Kaupo Gap",
   "Tags": ["Trail"],
   "Lat": 20.64881,
   "Lng":-156.13807,
   "Status": {"planning":true},
   "Page": {"url":"./Maui/Data/trails/kaupogap.html",},
   "Pics": [
      {"img":"https://www.halfwayanywhere.com/wp-content/uploads/2014/03/Kaupo-Gap-Trail-Marker-Brush.jpg",
       "note":"Not my picture...yet. Working up to doing Kaupo to Summit."}
   ],
},
{
   "Name": "Hanomanioa Light(house)",
   "Tags": ["Trail","Story"],
   "Lat": 20.58322,
   "Lng":-156.41197,
   "Status": {"visited":true},
   "Page": {"url":"./Maui/Data/trails/hanomanioa.html","display":true,"proofed":true},
   "Pics": [
//      {"img":"https://lh3.googleusercontent.com/pw/AL9nZEXwCyjgFNhzX65SdZfH0o0_dMOac8KmwRduAE5_XTDNPlIUfavr2a8vhRwS5B-kwVdACrjY8rMcEXhzlauGhq4BZ9VvFVIiBff0pQGKqGGYGkOQ2-lksRVOLsmmjXTIp3PNdL6As7WHHIfzyDgMLM08Hg=w1790-h1238-no",
//       "note":"Stock Photo."}
   ],
},
{
   "Name": "Auwahi Windmills",
   "Tags": ["Trail"],
   "Lat": 20.59912,
   "Lng":-156.31793,
   "Status": {"planning":true},
//   "Page": "./Maui/Data/trails/kaupogap.html", 
   "Pics": [
      {"img":"https://lh3.googleusercontent.com/pw/AL9nZEXM4uh21EVs4toLEHi4Xj6eu8XNyiaJHGEL5pnqvM_yG_3CB-d-xvalLJrNUaIyRc9AucPt7TsuUwdEgzzOVCbnAfwBF2fINcWjDEn39qU-GLijUiQ_dKY-s907TW5kljA9NMwtnJ4r6n_aWp0gbN36PQ=w2108-h1580-no",
       "note":"Placeholder to plan a hike, in from above, to the windmills."},
      {"img":"https://lh3.googleusercontent.com/pw/AL9nZEUoag-aEA-ZxYJzQacTeklGz-S2yWJS4vPFqtnZAuDDTeoUr9d9IYUicdvPmD5iXWZQwOfkOulWkhMZ2J232bIPlkN63jOx5_dlCQ0QF1C5QmH66zysVRnAXQICELJLr-0vsS8Uzw9i3aBqgoct7x0S8w=w2108-h1580-no"},
      {"img":"https://lh3.googleusercontent.com/pw/AL9nZEXlmw1tby3pdpVlLx_7pKuIC85Kp-gbIUyswBfKPpKxHCi5eoDYyhV1nJV8Ca2U3sOL1FpWVerRt2bAxrwaiIlVuwZJBvK3X61nIaSivs-Ib9ocjmtkif8cQeNGfIzfRheM_6c1Gcedd-_hnPl6UFsrew=w2108-h1580-no"},
   ],
},
{
   "Name": "Windmill Ridge",
   "Tags": ["Trail","Story"],
   "Lat": 20.83265,
   "Lng":-156.55633,
   "Status": {"visited":true},
   "Page": {"url":"./Maui/Data/trails/windmillridge.html", "display":true, "proofed":true},
   "Pics": [
      {"img":"https://lh3.googleusercontent.com/pw/AL9nZEVEAqY-LiB03vEdks-ydMo8wIJ7RZD2T1SH5q_ud4tjv0A4zXXLscWGvBFdwf8smJe_7JQq9Hocop3gYtItImDHNhOuGHnTtr-e-p6mZpqTVQoIN_hDOBh4ghsyZp1CcYDCEKlcqexECAndyIt9B642qA=w2868-h884-no"},
//      {"img":"https://lh3.googleusercontent.com/pw/AL9nZEW6ZWGE6nByQVGxUEXX9qkf3DtK9rq-f2Qm6ocmmZDMP512Jhn7Vs4qH4d2jIPQhhUAPbHbGbX0G7vk5iuDAhlslbUiFYx0yjWkOUqM525z9wv0pG4TmIMD6dRHbSlVXygpoyRIgrOe0jFVd-PMhrlVqw=w2868-h884-no"},
   ],
},
{
   "Name": "The Tree",
   "Tags": ["Trail"],
   "Lat": 20.64948738986722, 
   "Lng":-156.36898974253617,
   "Status": {"planning":true},
   "Page": {"url":"./Maui/Data/trails/thetree.html"}, 
   "Pics": [
      {"img":"https://lh3.googleusercontent.com/pw/AL9nZEUixp-80vhr2fNscQDGd9YbJNuvgWqrbt8PN2wdrUiSer8etAyafJwOcKMay7RD2U7ZDKieBJmrBWK9JMF_hLw-EXb5cJbE4BWOyiKcy_Z_CAK_Uwma5x4OI3K8bxIXRs-cD_YZjsGnw9OfFebhU3VI0A=w2107-h1580-no",
       "note":"Got to figure out a way to walk to 'The Tree' :)"},
      {"img":"https://lh3.googleusercontent.com/pw/AL9nZEXDIPL-esQLKqbcYrcA6OKF-Y-fdM3Bwq253o0nAY9OR7gKZWUnWxNMhgX8j_JkGmlh_6GPTpiZbAMV_qLKWXAiCpFoqm1yvM0QZvhYFFxRHKLgIm2_oSBd6jE7VTbQ3vLhHG2aGCqtA7t3p3ihCNvIFg=w2107-h1580-no"},
      {"img":"https://lh3.googleusercontent.com/pw/AL9nZEVhU8gUvqcDwHpkzXSqoC3oAVa1kuHZlKnp14zfWlHL1FGyL7Bwn6SF_DTaS6f_gBvtYolPZZ7cYKs_TZPkZzVHcoc3QEdfhBetpOJE8Zyr5cEhrZuI_LGM77QhoBlBd63anESBFE1M3MEvtf26vxr6pg=w2108-h1580-no",},
      {"img":"https://lh3.googleusercontent.com/pw/AL9nZEXpCUCIO9P4VYk7DYMBVD-m5kDlIL66sFXZIwEyKpNNyCwZrM8InoWoJLJ5FofkSKMvTvXNPHv5ni1olqu-qolg3aZDJRiL29XCJkB2f8lcyBv04WcHq4MOLpTIKIsP8Pcy8CM2LAfFbck-aaM5aZSliQ=w2108-h1580-no"},
      {"caption":"From Maui Brewing","img":"https://lh3.googleusercontent.com/pw/AL9nZEXtwXuKSFSfMV69bL5C_3ZkX3V4oNN5jfjHsWHyIe8Y5sM4b2ado2wFwXKrnpRdm-A37MOH9p5gZMF7hCuVDwHR1EnrmndlsPhxxklMvqOqok-b44BrWOZC2kOnUO9AK-B0TKj1b0M5XASVzurQdiST4w=w2386-h1580-no"},
   ],
},
{
   "Name": "Kahakapao",
   "Tags": ["Trail","Story"],
   "Lat": 20.82775, 
   "Lng":-156.27675,
   "Status": {"visited":true},
   "Page": {"url":"./Maui/Data/trails/kahakapao.html", "display":true}, 
   "Pics": [
      {"img":"https://lh3.googleusercontent.com/pw/AL9nZEXA1-g-5SyWowZ8blbVCWkzOQSdPKlvoPVeFJU2PObvcEgg7-Bjjg0AmESTC1V1eS6TVKObj9Z7qFH3Mb6mujRDhppjblAsE_mNgAqIWVxgAGZXgVtNDyk9mGy1eDPqd7VsABoFwsItiYko_GFPc_4DUw=w2107-h1580-no"},
   ],
},
{
   "Name": "Thompson Road",
   "Tags": ["Trail"],
   "Lat": 20.69459, 
   "Lng":-156.36457,
   "Status": {"visited":true},
 //  "Page": {"url":"./Maui/Data/trails/kahakapao.html", "display":true}, 
   "Pics": [
      {"img":"https://lh3.googleusercontent.com/pw/AL9nZEUrzhPdj1nV0BX-8iyGeB7zPZhaRM1KLMlx1FH-GqZ6PZtI3EuMaqtk4CUhoBQxyxS3ML-iEvMAvbsZyqbN2UTepADscU4ldZKyRYCLNVRtgj4wmzxKnBS1WD40B3NAlteOSNV8YzVIyPlWnkbxCQPpiQ=w2107-h1580-no",
       "note":"At about 3000', this short walk (1.5m to Oprah's house; 1.9m to top of Kamaole Road) can be a cooler and refreshing change from the coast. Views are extraordinary, both up and down the mountain. The hillside may remind you of Scotland."},
      {"img":"https://lh3.googleusercontent.com/pw/AL9nZEX85DIOQywJkFebqI4TH5AYIruIWtvX0FuOCXWFo-0pPDyAlHogCQPemM1Bt5v-T5lhBmBOGIaShDdEbEBCJKSLusT_iiRuB3RbNDyJAKhm2hNzPI_5joIyquzEM99ELh6t495YEWtjW5VLjQgezp8Tgg=w1187-h1580-no"},
      {"caption":"Oprah's house","img":"https://lh3.googleusercontent.com/pw/AL9nZEViiq7hfJrZyhaJqvsxoIrcHFzcZyTWdgxfq1HlroybXJi1nd64_es-24q8KF5scroAZf8IXKQ_9Ficvp3wk9rNvNcSimWE03T6k2aEwdgFnb3oidBXnhZLn2LYa9olii_EWD4l5YlZBkAVzLeR87Ur6A=w2107-h1580-no"},
      {"img":"https://lh3.googleusercontent.com/pw/AL9nZEWxufv-FFrXmMAdc35dCVyiEz1qLTm-Kf-TxfZ9N9TpWeoLv_1s2ivN4Wz3ZQlzwr4vxP8BqoH1_JpBdd2glCEa5akiDJf6rRA8PXcL-E_y1gJG4ZnSY_XYjfIE5f7wSeAmiNM1pG2urPYHkkBDep4wGA=w2107-h1580-no"},
      {"img":"https://lh3.googleusercontent.com/pw/AL9nZEUhiNoCx403c0ybxeKPmBtESHZdmzH_76gP2iFhto7V5eYdq-g9f0NQvfpYiGQsjmcD-NAD_cTbP0fcvLpJoUmpGplqRoHBmpHTqPCOujXmQBGKPfP_X3vxWnc0ytkuzPbnonAZ2xffT7yUCJ1K-YHw4Q=w2107-h1580-no"},
      {"img":"https://lh3.googleusercontent.com/pw/AL9nZEVjr9eL39ZGbqcre7dQnNQ40gav5phFKQGWQI0dn1RSZj1jaASOzOmxcKRcsjTW4DkzK4EoU28LCt5gyNtEEG39WmAqAm8_OywzlFzUjTzEW5FpGArSeeoHeK_vm1E7oBttlzB42HpAOPQLRc45qOgZoA=w2107-h1580-no"},
      {"img":"https://lh3.googleusercontent.com/pw/AL9nZEXLzq8Zv77JMizbuge2JJgdEDlggeKqBvfxvca8T9hFplkb-WfwisuXLAhu_L2Psl7u89APkEoZCWdGCHyal29NeD46ddgGfzZXqZ00IBQncu_Vqlkevt5Z8rdEn_0idPY_bHlxQjJCZRSU5213Yklkzg=w2107-h1580-no"},
      {"img":"https://lh3.googleusercontent.com/pw/AL9nZEUf1OgI7LRGUk0ZbqlHe5p8TS7P2ujEheDDXNtIjLfgsfTJj5_HN3CC93-Vvja4L4wkurn53RbCp9DdF2HcsiwE4scXtUhVe-CToJr1XI1XrDryXmS8bxQfnKHG6_-h0tgaM_LtqFyDug8yBK-ORPPSBw=w2107-h1580-no"},
   ],
},
{
   "Name": "7 Mile Beach",
   "Tags": ["Trail"],
   "Lat": 20.79782, 
   "Lng":-156.49744,
   "Status": {"visited":true},
   "Page": {"url":"./Maui/Data/trails/7miles.html", "display":true, "proofed":true}, 
   "Pics": [
   ],
},
{
   "Name": "Waihou Spring",
   "Tags": ["Trail"],
   "Lat": 20.80670, 
   "Lng":-156.27994,
   "Status": {"visited":true},
 //  "Page": {"url":"./Maui/Data/trails/7miles.html", "display":true, "proofed":true}, 
   "Pics": [
      {"img":"https://lh3.googleusercontent.com/pw/AL9nZEWtFm7FSX0s9GKc8U3F77G5vux6gYPZghw_RdZ4QuGoH6I9ZoLW109F2z8zi48ibjcCLJC3PjJ3Jtr6ezEbRsaS9oRvsz-C87wbehlh9RiEp3F690qxiWaLb746sA-gvz5giUQD3iS5yhm1FZgaqlBXgA=w2107-h1580-no",
       "note":"Beautiful, although very short, forest walk. Kehakapau is significantly better, ihmo."},
      {"img":"https://lh3.googleusercontent.com/pw/AL9nZEX3Y98-KjOvN8N1RV0zWhDBM2UOxNT43Z2RqmmE8yXpxqQSwbF-VKvT6d2-yZGlpCsHMDo_U5CDlA3CUjLkGoPOND5DvLZFIjq86FU8F5FmYX6Wufq_E2sUt45l491MlZ3a7INEehLHFOMw6pdLGfLYog=w1187-h1580-no",
       "caption":"The 'spring'? Very dry today."},
      {"img":"https://lh3.googleusercontent.com/pw/AL9nZEXstBS3ylVVV32mEtjm-Clh8aD0qJ4gfvqHDuUu6P0ZASRYS_z1otAoZfCIMplsLpg2OdNLp96IQj1xuWjGdHvluPStN_Lx_OQKkVFLMSIdFV0KpxYJEAmNWu-hIZJYttQP3UdoOGQdj_-OJ8DqB81E8A=w1187-h1580-no",
       "caption":"Not rainbow, but nicely colored eucalyptus"},
   ],
},
{
   "Name": "Sliding Sands",
   "Tags": ["Trail"],
   "Lat": 20.71143, 
   "Lng":-156.24901,
   "Status": {"visited":true},
 //  "Page": {"url":"./Maui/Data/trails/7miles.html", "display":true, "proofed":true}, 
   "Pics": [
      {"img":"https://lh3.googleusercontent.com/pw/AL9nZEUvIIQ1ilKwVLKL3F92I4CFDPzmCK5X2rOBZM6GpMkOJgyCXpKmaX9Vkw2rzEG8i99_hxT6kW90hT2RshJQMSL44mdIxpiQ-_1G_lFnzQd9NfE3HkfwR-jGM-vl-kdzVURgeUj7UCZSw91vM3iBob-YnQ=w2107-h1580-no",
       "note":"Need to come back here and get some better photos...but even with these you can see the otherwordly beauty of this place."},
      {"img":"https://lh3.googleusercontent.com/pw/AL9nZEXALmGu5E9d-pfYKiKFXS6qbj0qrqOOxAz-49bkvxLZQHeBsSxndgNR3ImE34h-GtfIQzdmtAJlx_X4vEkzpcIOBI-AQ2HMGYuJm7AdeGezMa2QkF9vX6_UiyM7U-5Gev74n0fxx92vlwFJYkIv5pFAiw=w2107-h1580-no"},
      {"img":"https://lh3.googleusercontent.com/pw/AL9nZEXsd4j-NBtN8JFZWNd7PL63WbD09YgrWpDCjKOFYQnuXs3amBMyJtcU_1LQmfJ4ehB0PH7VhC8iFQAaxGo0m3TPU64f1dLoi0HehTDv7Pt7XPeoYuGvayT723NwMvIZYMHqiQAQO5iPWKWku0xhpcy3nQ=w2107-h1580-no"},
      {"img":"https://lh3.googleusercontent.com/pw/AL9nZEXDi26mfLItbRzPfMMbJkUDcXh51cIEcCrG2pWCwS7N7aXoxLFle2VxV4jge9CHJUQTR9-D7j3unei86hclNS_iEqfMScDk6dSnB-nxN_x8ORcbH5aE36dqbYgpRLWQJegQrNzypliX1c5vITk5YoRJTw=w2107-h1580-no"},
   ],
},
{
   "Name": "Waihee Ridge",
   "Tags": ["Trail"],
   "Lat": 20.94719, 
   "Lng":-156.55162,
   "Status": {"visited":true},
 //  "Page": {"url":"./Maui/Data/trails/7miles.html", "display":true, "proofed":true}, 
   "Pics": [
      {"img":"https://lh3.googleusercontent.com/pw/AL9nZEUFl9DrQNoRxoKqW4c51j3KTJ1h8SQfdVJJvY-AETZHnZfpkYpJly3VEZwUBiH6KbVM-05MZVav0hmwHW9R99LFsW6nA8hxDGjCkpZsdS4jZS21_Ge5rBgBm24cL9Gmlu1m6-SRvXER1MjzfO9IJrkWKg=w1187-h1580-no",
       "note":"Beatutiful walk, as guide books say. One hour, round trip. Gates open automatically at 7AM."},
      {"img":"https://lh3.googleusercontent.com/pw/AL9nZEX-63MxUm1l-EKypBUPpVIQsyUZ8ouUqnD-6kxizalYuxlF505RDtdSCl2ciqeA_H60qaD2hFx9tKNPCkwOtx1r7LNnCAXwcMT4gO4mew9vP9oe6W2jfY9fMm1YREdy0JE9Pka-SztH9MLnNxYo1pNDIg=w2107-h1580-no"},
      {"img":"https://lh3.googleusercontent.com/pw/AL9nZEVTQtKc_y0eCnYEYRxyN6IbrVkvB2pDKtC51ZbZ1UWVSREDYNbJB5pru5YyDmQW76CDR944-7Ln38N466Nnq9yhUw0XPosgEHdczWzCdvC-ZEVHquV3ZVFZLnlojZgnuXph0o6-u4Yn7WJiy3u9S50HvQ=w2107-h1580-no"},
      {"img":"https://lh3.googleusercontent.com/pw/AL9nZEWoriC3RLFHnb1SH2My-KG6pSAL_Z073N1br_2VjcomxJuL_bwc5xmmfydcZuZqf-3DvoTNfFm2E9a1XAyJD4Cukqjph1GgutnMmHrly9AQVP3KBj-9wHEJKm6JW5DEIFJzIC-zh7T_0bTMAaY25Nn-mQ=w2876-h846-no",
       "caption":"Top, looking north"},
       {"img":"https://lh3.googleusercontent.com/pw/AL9nZEXp0QIhKu5bwZY-94AlHH9VxrzvDC8MSV7d41dc-t3zrIpn0V17TOkodgA9YCQPwiMb160-PHrqxTHlhtDfU3v_kXxDG3fphiKa5wcnQg4zWm2GYAuW4DRopB1qzBGjQZslOlIgm_XvHLbWTl8CjSTXGQ=w2856-h872-no",
       "caption":"Top, looking south"}
   ],
},

// ========== PLACES of Interest
{
   "Name":"Hokulani",
   "Translation": "Heavenly Star",
   "Tags": ["Place"],
   "Lat": 20.75151,
   "Lng": -156.44469,
   "Status": {"visited":true},
   "Pics": [
      {"img":"https://lh3.googleusercontent.com/pw/AL9nZEU7S6X8SotVPTcAuRDpQSK-T-vzArF6J6IwAs-bJb1TZLovLNaP2mzpCXjvpkiLOBpQELCG_W1FAujMUzvKR6HdejFeCztEmFD40MSPZDMDVyqQuYesQb0hBB1eIurnbzC7XRLrXCnjgFjtA26r6FTVuw=w1186-h1580-no"},
      {"img":"https://lh3.googleusercontent.com/pw/AL9nZEUJbzRtdTmwf1uKXipKvGSenCfAaOuIz5GqjabgCFf8ok1FWdUbz1kNrUyNTfDaPwR5ZBy_2Xc9noH-zIuRARv15XyrqJgfKVNB17gMChUBmo3dFM-6JHkOZuNLksf3P_uQPB5Wci8mOV7bF-IidXyUzg=w2108-h1580-no"},
      {"img":"https://lh3.googleusercontent.com/pw/AL9nZEWGnHmk-rGIJ7lrmQEH98ufBa9XD4V_TmpShH7rKH1MKSDWCqSVL4o8IqKDr9Zg4m5h2GClTIY2Hrj4DDBQEXeJCIjfIWmlvvAiiNSpTTLU6UzsQGrVAboM8ITyRpWk8YD2YrdhbfqoXlZRcGIA2YV5MQ=w2880-h1347-no"},
   ]
},
{
   "Name":"(Upper) Kanaio Road",
   "Tags": ["Place"],
   "Lat": 20.63194,
   "Lng": -156.37894,
   "Status": {"visited":true},
   "Pics": [
      {"img":"https://lh3.googleusercontent.com/pw/AL9nZEUkTeXrUJCNt-D_d05B-R4Mp5sAxrbjoHKxBAMLyCj88u17D0lqDQl0u2tokQDYUYK2rMctMene7jhl5PNrBO_a4pqQozg4sfMATp8j5oCEIkbp59F1nDTcJElhw1O-9XC7T-ETsKSM2iWwMLQpP4S3NA=w2107-h1580-no",
       "note":"Drove this road looking for a trail to 'the tree.' First, there is no trail. Second, the road is a fun drive, but ultimately not worth it. Can get the same views from more accessible places."},
      {"caption":"The tree is over that ridge...somewhere","img":"https://lh3.googleusercontent.com/pw/AL9nZEWWrItG1NfJOuL5cTlLDhvBtbCJi1ytMWBgicAYGKpzWzstFBhoZyIl1QPZuMcMW3yxwcGtZgv_h4BspbOZvuN0t7K5LOxXzYT9YtcxvXKVK8YaPCftOKwPx6JLHa__nxPBQVL41onMz4_SyBvV6146Ng=w2107-h1580-no"},
      {"img":"https://lh3.googleusercontent.com/pw/AL9nZEV1GDpqEjrqLc2thRwxm-DWU5AOKSCqg1zdIHekwntJWFVjAoHUGcOEK_9tz-oDa_UgCcHz8XRZiGZAU9rVtf9IiHPCnng4kLmXb_j0-i17TiKpsvk0mRH-yGCh8mlPesaFnFwATX6YiohlsOgoFg8G1w=w2107-h1580-no"},
   ]
},
{
   "Name":"Keālia Coastal Boardwalk",
   "Tags": ["Place"],
   "Lat": 20.79667,
   "Lng": -156.48846,
   "Status": {"visited":true},
   "Pics": [
      {"img":"https://lh3.googleusercontent.com/pw/AL9nZEU-0TtNqGQ0A9ThBCl8S-BJ39zsu6GM8LnnYl9nYlZVysUTrYdoQS2IWPdHHGj6F94MvCKk5jMYOyPnIy1WkBNPOpmJibj9EZduW_CryDs912hhptSg4ES9I0BQ-xzedEMFBnLHs_fd2DS4S799bc4woA=w2107-h1580-no"},
      {"img":"https://lh3.googleusercontent.com/pw/AL9nZEWU5sYRi17cNNDpCgjCaROkUs5dhYtxultZ1PtXUDn0fp-qA7Gq7aU9LP_f3cktX9JF246KqZr6YecbMRZ8cvx0e07sRzOjCUVik8Lcg3nh2-UEO_kjLzKG8UyvnF1uJmua9Xg1DCkbdFwOLp673MJ7iA=w2772-h1580-no"},
      {"img":"https://lh3.googleusercontent.com/pw/AL9nZEXXhfQ5arJEzyn4MkYruOrTwduXsDVzj_rYJpL1tfP9jxmQntJu4hTA40LfX-uqfSv9SzkqlghCX6X73kGkALefXnf2pR2UP3W3bkynfO3f6jX5Jplfn3GLw3yJK2e-mU_djTU7gBNKHJ195hoAaypPNQ=w2107-h1580-no"},
      {"img":"https://lh3.googleusercontent.com/pw/AL9nZEUEK_i6wU4m-BJOZuDxukB4ncj_sJgIRjAq2X58hoL9iYv71GpVqn0m_j1Y6jKOWGqtFTWq-CO-ALLEIetWZ5jE0INTxrTGuIgEnBsq5ybF2w4I9AVmQF10Sm_eG2u_ltb3a5EzhYP9rOtpDmr0NfX2BQ=w2107-h1580-no"},
      {"img":"https://lh3.googleusercontent.com/pw/AL9nZEUN0K_Ut0wogXCUW1ndHPNHKAXcS_j0SXYc49BzVz3_Vi2y-OGXDm1uo3kuMwIu3hKirGoy2ndMz2Rb35vaGoJ8LOM4cpZc2YDF-gFbxY0AlJMxVEn_EWYZueV0KdTBAUjXCfB1msjJseHSd3hcE0BuEA=w2107-h1580-no"},
      {"img":"https://lh3.googleusercontent.com/pw/AL9nZEX_d8HfD98MA5YvqzErnQUoJYynRXC7iQ47-ow9VGNoD6QdnQoElM2UuUT9YeG7zNFI8WRKT1rBI72LaABLhwgVCQRZ-0RIirsMtfd2BLZcAuVLyH3Ck9sXGW3dgzkQKNOMpD2ukwP7dgkG-9MJ1ndwaA=w2107-h1580-no"},
      {"img":"https://lh3.googleusercontent.com/pw/AL9nZEX_2h5ri6UwzbZOdH9fNrrjkF3LrTQSqzf0MZIRW59C12FrBBMTdqqwhBq5rUF4wuhFS5UJxFgZD5RzI607tE2bPtpnS8Id8rh9XDROymK7qc0ZQ7sz_CoDCf9-Q6_sXtyyudlFuvfaYvm8cuoAFy9KfA=w2107-h1580-no"},
    ]
},
// THINGS of Interest
{
   "Name":"Hihimanu Ray",
   "Tags": ["Misc.","Story"],
   "Lat": 20.69581,
   "Lng": -156.45,
   "Status": {},
   "Page": {"url":"./Maui/Data/things/hihimanuray.html", "display": true},
   "Pics": [
//      {"img":"https://lh3.googleusercontent.com/pw/AL9nZEVw1WXJxn2J66Jf_sYbfmOsPeXxJlkHe5RZ33OYKgLhqmDlx4_r4mR9hDuwlxnmYe8Jat9NoaTD6Glb2PLbmiFP0Hm-UJYpsNPI6nJuqu5VBcbw7Xgnz55NtvH0Mjd2CKbj5JrGxYWnVQFWU1RXTUd8jA=w2880-h1436-no"},
   ]
},
{
   "Name":"Sea Glass",
   "Tags": ["Misc.","Story"],
   "Lat": 20.8822,
   "Lng": -156.695,
   "Status": {},
   "Page": {"url":"./Maui/Data/things/seaglass.html", "display": true},
   "Pics": [
//      {"img":"https://lh3.googleusercontent.com/pw/AL9nZEVw1WXJxn2J66Jf_sYbfmOsPeXxJlkHe5RZ33OYKgLhqmDlx4_r4mR9hDuwlxnmYe8Jat9NoaTD6Glb2PLbmiFP0Hm-UJYpsNPI6nJuqu5VBcbw7Xgnz55NtvH0Mjd2CKbj5JrGxYWnVQFWU1RXTUd8jA=w2880-h1436-no"},
   ]
},
{
   "Name":"MECO Maalaea",
   "Tags": ["Misc."],
   "Lat": 20.80103,
   "Lng": -156.49548,
   "Status": {},
//   "Page": {"url":"./Maui/Data/things/seaglass.html", "display": true},
   "Pics": [
      {"img":"https://lh3.googleusercontent.com/pw/AL9nZEWkWv6Tm8N4ia46NeCEMz7QroEPGHUEfQG9lsij20U7jH2K_U-JOYtxQecYlc_iQmCcSec0r-XaH2182e2A9lNuNykhRaRslOJWUIH9mISwCckLpmbVpcqYQXFh_Y9pX73kIloZLILw8l_yiqsURK7nlg=w2107-h1580-no",
      "caption":"MECO power generation; worth some research....coming soon."},
   ]
},
// Random....not really related to Maui at all
{
   "Name":"Six Word SciFi",
   "Tags": ["Random","Story"],
   "Lat": 20.729,
   "Lng": -156.637,
   "Status": {},
   "Page": {"url":"./Maui/Data/random/sixWordSciFi.html", "display": true},
   "Pics": [   ]
},

// PUU
// ========== Pu'u
{
   "Name": "Pu'u Kukui",
   "Translation": "Hill with Candlenut Tree / Hill Light,Lamp,Torch",
   "Tags": ["Puu"],
   "Lat": 20.89426, 
   "Lng":-156.58944,
   "Status": {"planning":true},
   "Page": {"url":"./Maui/Data/trails/puukukui.html", "display":true}, 
   "Pics": [
      {"img":"https://lh3.googleusercontent.com/pw/AL9nZEUuxxSyHjwROZNnnUNyN394AxTKb_oNpEauEXWh-jN1AqEUCH388GRSFaLMI1MWU8TymQWRz4eG9PvtGta1bItVyN89qhs1HM0sgOTv1tI6vHGVd5s4x4Izcahh9XuRFgxjhfSkWI7GmHX0AkFhMfwtsQ=w1834-h1222-no"},
   ],
},

{
   "Name": " Red Hill ",
   "Tags": ["Puu"],
   "Lat": 20.4567 ,
   "Lng": -155.9901 ,
   "Height": 10 ,
   "Status": {},
   "Pics": [],
},
{
   "Name": " Red Hill ",
   "Tags": ["Puu"],
   "Lat": 20.4567 ,
   "Lng": -155.9901 ,
   "Height": 10 ,
   "Status": {},
   "Pics": [],
},
{
   "Name": " Red Hill ",
   "Tags": ["Puu"],
   "Lat": 20.4567 ,
   "Lng": -155.9901 ,
   "Height": 10 ,
   "Status": {},
   "Pics": [],
},
{
   "Name": " Kolekole ",
   "Tags": ["Puu"],
   "Lat": 20.709 ,
   "Lng": -156.2549 ,
   "Height": 10 ,
   "Status": {},
   "Pics": [],
},
{
   "Name": " Magnetic Peak ",
   "Tags": ["Puu"],
   "Lat": 20.7086 ,
   "Lng": -156.2513 ,
   "Height": 10 ,
   "Status": {},
   "Pics": [],
},
{
   "Name": " Pākaʻaoʻao ",
   "Tags": ["Puu"],
   "Lat": 20.7126 ,
   "Lng": -156.2505 ,
   "Height": 9 ,
   "Status": {},
   "Pics": [],
},
{
   "Name": " Kilohana ",
   "Tags": ["Puu"],
   "Lat": 20.7248 ,
   "Lng": -156.2453 ,
   "Height": 9 ,
   "Status": {},
   "Pics": [],
},
{
   "Name": " Haupaʻakea Peak ",
   "Tags": ["Puu"],
   "Lat": 20.7004 ,
   "Lng": -156.2302 ,
   "Height": 9 ,
   "Status": {},
   "Pics": [],
},
{
   "Name": " Kalepeamoa ",
   "Tags": ["Puu"],
   "Lat": 20.6979 ,
   "Lng": -156.2807 ,
   "Height": 9 ,
   "Status": {},
   "Pics": [],
},
{
   "Name": " Hanakauhi ",
   "Tags": ["Puu"],
   "Lat": 20.718 ,
   "Lng": -156.2007 ,
   "Height": 8 ,
   "Status": {},
   "Pics": [],
},
{
   "Name": " Kanahau ",
   "Tags": ["Puu"],
   "Lat": 20.6915 ,
   "Lng": -156.2908 ,
   "Height": 8 ,
   "Status": {},
   "Pics": [],
},
{
   "Name": " 8432 ",
   "Tags": ["Puu"],
   "Lat": 20.7015 ,
   "Lng": -156.1971 ,
   "Height": 8 ,
   "Status": {},
   "Pics": [],
},
{
   "Name": " Kalapawili Ridge ",
   "Tags": ["Puu"],
   "Lat": 20.734 ,
   "Lng": -156.1616 ,
   "Height": 8 ,
   "Status": {},
   "Pics": [],
},
{
   "Name": " Lauʻulu ",
   "Tags": ["Puu"],
   "Lat": 20.7318 ,
   "Lng": -156.1501 ,
   "Height": 8 ,
   "Status": {},
   "Pics": [],
},
{
   "Name": " Haleakala ",
   "Tags": ["Puu"],
   "Lat": 20.7016 ,
   "Lng": -156.1748 ,
   "Height": 8 ,
   "Status": {},
   "Pics": [],
},
{
   "Name": " Kamaʻoliʻi ",
   "Tags": ["Puu"],
   "Lat": 20.7171 ,
   "Lng": -156.2296 ,
   "Height": 8 ,
   "Status": {},
   "Pics": [],
},
{
   "Name": " Puʻuomāui ",
   "Tags": ["Puu"],
   "Lat": 20.7186 ,
   "Lng": -156.2225 ,
   "Height": 8 ,
   "Status": {},
   "Pics": [],
},
{
   "Name": " Pōhakupālaha ",
   "Tags": ["Puu"],
   "Lat": 20.731 ,
   "Lng": -156.1437 ,
   "Height": 8 ,
   "Status": {},
   "Pics": [],
},
{
   "Name": " Puʻuopele ",
   "Tags": ["Puu"],
   "Lat": 20.7088 ,
   "Lng": -156.2222 ,
   "Height": 8 ,
   "Status": {},
   "Pics": [],
},
{
   "Name": " Puʻualiʻi ",
   "Tags": ["Puu"],
   "Lat": 20.6932 ,
   "Lng": -156.2287 ,
   "Height": 8 ,
   "Status": {},
   "Pics": [],
},
{
   "Name": " Kumuiilahi ",
   "Tags": ["Puu"],
   "Lat": 20.7021 ,
   "Lng": -156.2007 ,
   "Height": 7 ,
   "Status": {},
   "Pics": [],
},
{
   "Name": " Kamoaopele ",
   "Tags": ["Puu"],
   "Lat": 20.7189 ,
   "Lng": -156.2087 ,
   "Height": 7 ,
   "Status": {},
   "Pics": [],
},
{
   "Name": " Puʻunaue ",
   "Tags": ["Puu"],
   "Lat": 20.7209 ,
   "Lng": -156.1918 ,
   "Height": 7 ,
   "Status": {},
   "Pics": [],
},
{
   "Name": " Puʻuʻalaea ",
   "Tags": ["Puu"],
   "Lat": 20.7369 ,
   "Lng": -156.1443 ,
   "Height": 7 ,
   "Status": {},
   "Pics": [],
},
{
   "Name": " Puʻukumu ",
   "Tags": ["Puu"],
   "Lat": 20.7297 ,
   "Lng": -156.1873 ,
   "Height": 7 ,
   "Status": {},
   "Pics": [],
},
{
   "Name": " Halāliʻi ",
   "Tags": ["Puu"],
   "Lat": 20.7192 ,
   "Lng": -156.1968 ,
   "Height": 7 ,
   "Status": {},
   "Pics": [],
},
{
   "Name": " Puʻumāmane ",
   "Tags": ["Puu"],
   "Lat": 20.7224 ,
   "Lng": -156.1888 ,
   "Height": 7 ,
   "Status": {},
   "Pics": [],
},
{
   "Name": " Kalua Awa ",
   "Tags": ["Puu"],
   "Lat": 20.7315 ,
   "Lng": -156.1668 ,
   "Height": 7 ,
   "Status": {},
   "Pics": [],
},
{
   "Name": " Kuiki ",
   "Tags": ["Puu"],
   "Lat": 20.7153 ,
   "Lng": -156.1363 ,
   "Height": 7 ,
   "Status": {},
   "Pics": [],
},
{
   "Name": " Puʻumaile ",
   "Tags": ["Puu"],
   "Lat": 20.7121 ,
   "Lng": -156.186 ,
   "Height": 7 ,
   "Status": {},
   "Pics": [],
},
{
   "Name": " Puʻunole ",
   "Tags": ["Puu"],
   "Lat": 20.7197 ,
   "Lng": -156.1896 ,
   "Height": 7 ,
   "Status": {},
   "Pics": [],
},
{
   "Name": " Nāmanaokeakua ",
   "Tags": ["Puu"],
   "Lat": 20.7192 ,
   "Lng": -156.1844 ,
   "Height": 7 ,
   "Status": {},
   "Pics": [],
},
{
   "Name": " Puʻukauaua ",
   "Tags": ["Puu"],
   "Lat": 20.7143 ,
   "Lng": -156.1904 ,
   "Height": 7 ,
   "Status": {},
   "Pics": [],
},
{
   "Name": " Puʻuoili ",
   "Tags": ["Puu"],
   "Lat": 20.7545 ,
   "Lng": -156.2484 ,
   "Height": 7 ,
   "Status": {},
   "Pics": [],
},
{
   "Name": " Honokahua ",
   "Tags": ["Puu"],
   "Lat": 20.7234 ,
   "Lng": -156.1757 ,
   "Height": 7 ,
   "Status": {},
   "Pics": [],
},
{
   "Name": " Kahua ",
   "Tags": ["Puu"],
   "Lat": 20.6781 ,
   "Lng": -156.2732 ,
   "Height": 7 ,
   "Status": {},
   "Pics": [],
},
{
   "Name": " Puʻukeōkea ",
   "Tags": ["Puu"],
   "Lat": 20.6788 ,
   "Lng": -156.3214 ,
   "Height": 7 ,
   "Status": {},
   "Pics": [],
},
{
   "Name": " ʻ&#332;ʻilipuʻu ",
   "Tags": ["Puu"],
   "Lat": 20.7181 ,
   "Lng": -156.1601 ,
   "Height": 6 ,
   "Status": {},
   "Pics": [],
},
{
   "Name": " Puʻunianiau ",
   "Tags": ["Puu"],
   "Lat": 20.7696 ,
   "Lng": -156.243 ,
   "Height": 6 ,
   "Status": {},
   "Pics": [],
},
{
   "Name": " Lāʻie Puʻu ",
   "Tags": ["Puu"],
   "Lat": 20.7232 ,
   "Lng": -156.1568 ,
   "Height": 6 ,
   "Status": {},
   "Pics": [],
},
{
   "Name": " Polipoli ",
   "Tags": ["Puu"],
   "Lat": 20.6717 ,
   "Lng": -156.3326 ,
   "Height": 6 ,
   "Status": {},
   "Pics": [],
},
{
   "Name": " Puʻupahu ",
   "Tags": ["Puu"],
   "Lat": 20.7515 ,
   "Lng": -156.2692 ,
   "Height": 6 ,
   "Status": {},
   "Pics": [],
},
{
   "Name": " Puʻuluʻau ",
   "Tags": ["Puu"],
   "Lat": 20.7792 ,
   "Lng": -156.232 ,
   "Height": 6 ,
   "Status": {},
   "Pics": [],
},
{
   "Name": " Puu Kukui ",
   "Tags": ["Puu"],
   "Lat": 20.845 ,
   "Lng": -156.4657 ,
   "Height": 5 ,
   "Status": {},
   "Pics": [],
},
{
   "Name": " Kahoolewa Ridge ",
   "Tags": ["Puu"],
   "Lat": 20.8957 ,
   "Lng": -156.5675 ,
   "Height": 5 ,
   "Status": {},
   "Pics": [],
},
{
   "Name": " Puu Makua ",
   "Tags": ["Puu"],
   "Lat": 20.6618 ,
   "Lng": -156.3503 ,
   "Height": 5 ,
   "Status": {},
   "Pics": [],
},
{
   "Name": " 5220 ",
   "Tags": ["Puu"],
   "Lat": 20.8795 ,
   "Lng": -156.5898 ,
   "Height": 5 ,
   "Status": {},
   "Pics": [],
},
{
   "Name": " Puʻuokākaʻe ",
   "Tags": ["Puu"],
   "Lat": 20.7995 ,
   "Lng": -156.2423 ,
   "Height": 4 ,
   "Status": {},
   "Pics": [],
},
{
   "Name": " Kamakou ",
   "Tags": ["Puu"],
   "Lat": 20.9999 ,
   "Lng": -156.9287 ,
   "Height": 4 ,
   "Status": {},
   "Pics": [],
},
{
   "Name": " Uapa ",
   "Tags": ["Puu"],
   "Lat": 21.1073 ,
   "Lng": -156.8707 ,
   "Height": 4 ,
   "Status": {},
   "Pics": [],
},
{
   "Name": " Puʻuowahaʻula ",
   "Tags": ["Puu"],
   "Lat": 21.1089 ,
   "Lng": -156.875 ,
   "Height": 4 ,
   "Status": {},
   "Pics": [],
},
{
   "Name": " Kaholoapele ",
   "Tags": ["Puu"],
   "Lat": 21.1052 ,
   "Lng": -156.8641 ,
   "Height": 4 ,
   "Status": {},
   "Pics": [],
},
{
   "Name": " Helu ",
   "Tags": ["Puu"],
   "Lat": 20.8668 ,
   "Lng": -156.5978 ,
   "Height": 4 ,
   "Status": {},
   "Pics": [],
},
{
   "Name": " Puu Ahulili ",
   "Tags": ["Puu"],
   "Lat": 20.6861 ,
   "Lng": -156.1147 ,
   "Height": 4 ,
   "Status": {},
   "Pics": [],
},
{
   "Name": " Hanaula ",
   "Tags": ["Puu"],
   "Lat": 20.869 ,
   "Lng": -156.5825 ,
   "Height": 4 ,
   "Status": {},
   "Pics": [],
},
{
   "Name": " Olokuʻi ",
   "Tags": ["Puu"],
   "Lat": 21.1268 ,
   "Lng": -156.8633 ,
   "Height": 4 ,
   "Status": {},
   "Pics": [],
},
{
   "Name": " Kaumakani ",
   "Tags": ["Puu"],
   "Lat": 20.7112 ,
   "Lng": -156.0781 ,
   "Height": 4 ,
   "Status": {},
   "Pics": [],
},
{
   "Name": " Kaunuohua ",
   "Tags": ["Puu"],
   "Lat": 21.1107 ,
   "Lng": -156.8792 ,
   "Height": 4 ,
   "Status": {},
   "Pics": [],
},
{
   "Name": " 4457 ",
   "Tags": ["Puu"],
   "Lat": 20.8554 ,
   "Lng": -156.5669 ,
   "Height": 4 ,
   "Status": {},
   "Pics": [],
},
{
   "Name": " Kapilau Ridge ",
   "Tags": ["Puu"],
   "Lat": 20.8623 ,
   "Lng": -156.5576 ,
   "Height": 4 ,
   "Status": {},
   "Pics": [],
},
{
   "Name": " Keonehunehune ",
   "Tags": ["Puu"],
   "Lat": 20.6517 ,
   "Lng": -156.3611 ,
   "Height": 4 ,
   "Status": {},
   "Pics": [],
},
{
   "Name": " Pākuʻi ",
   "Tags": ["Puu"],
   "Lat": 21.1031 ,
   "Lng": -156.8545 ,
   "Height": 4 ,
   "Status": {},
   "Pics": [],
},
{
   "Name": " P&#275;p&#275;ʻōpae ",
   "Tags": ["Puu"],
   "Lat": 21.1178 ,
   "Lng": -156.8951 ,
   "Height": 4 ,
   "Status": {},
   "Pics": [],
},
{
   "Name": " Kalawao County HP ",
   "Tags": ["Puu"],
   "Lat": 21.1285 ,
   "Lng": -156.8977 ,
   "Height": 4 ,
   "Status": {},
   "Pics": [],
},
{
   "Name": " Lihau ",
   "Tags": ["Puu"],
   "Lat": 20.8577 ,
   "Lng": -156.5945 ,
   "Height": 4 ,
   "Status": {},
   "Pics": [],
},
{
   "Name": " Kīlau ",
   "Tags": ["Puu"],
   "Lat": 21.1028 ,
   "Lng": -156.8467 ,
   "Height": 4 ,
   "Status": {},
   "Pics": [],
},
{
   "Name": " Lehuʻula ",
   "Tags": ["Puu"],
   "Lat": 21.1062 ,
   "Lng": -156.8946 ,
   "Height": 4 ,
   "Status": {},
   "Pics": [],
},
{
   "Name": " Kapuki ",
   "Tags": ["Puu"],
   "Lat": 21.1406 ,
   "Lng": -156.8555 ,
   "Height": 4 ,
   "Status": {},
   "Pics": [],
},
{
   "Name": " Puʻupane ",
   "Tags": ["Puu"],
   "Lat": 20.6579 ,
   "Lng": -156.2497 ,
   "Height": 4 ,
   "Status": {},
   "Pics": [],
},
{
   "Name": " 3980 ",
   "Tags": ["Puu"],
   "Lat": 20.7363 ,
   "Lng": -156.053 ,
   "Height": 3 ,
   "Status": {},
   "Pics": [],
},
{
   "Name": " Pōhakuʻulaʻula ",
   "Tags": ["Puu"],
   "Lat": 21.1434 ,
   "Lng": -156.8581 ,
   "Height": 3 ,
   "Status": {},
   "Pics": [],
},
{
   "Name": " Hanalilolilo ",
   "Tags": ["Puu"],
   "Lat": 21.1251 ,
   "Lng": -156.9089 ,
   "Height": 3 ,
   "Status": {},
   "Pics": [],
},
{
   "Name": " Puʻukolekole ",
   "Tags": ["Puu"],
   "Lat": 21.1044 ,
   "Lng": -156.9008 ,
   "Height": 3 ,
   "Status": {},
   "Pics": [],
},
{
   "Name": " Keonenelu ",
   "Tags": ["Puu"],
   "Lat": 20.6524 ,
   "Lng": -156.369 ,
   "Height": 3 ,
   "Status": {},
   "Pics": [],
},
{
   "Name": " Halepohaku ",
   "Tags": ["Puu"],
   "Lat": 20.85 ,
   "Lng": -156.5764 ,
   "Height": 3 ,
   "Status": {},
   "Pics": [],
},
{
   "Name": " Puʻuokaʻeha ",
   "Tags": ["Puu"],
   "Lat": 21.1164 ,
   "Lng": -156.9144 ,
   "Height": 3 ,
   "Status": {},
   "Pics": [],
},
{
   "Name": " Puu Kane ",
   "Tags": ["Puu"],
   "Lat": 20.8946 ,
   "Lng": -156.5488 ,
   "Height": 3 ,
   "Status": {},
   "Pics": [],
},
{
   "Name": " Kaulahuki ",
   "Tags": ["Puu"],
   "Lat": 21.1293 ,
   "Lng": -156.9229 ,
   "Height": 3 ,
   "Status": {},
   "Pics": [],
},
{
   "Name": " Kaʻāpahu ",
   "Tags": ["Puu"],
   "Lat": 21.0943 ,
   "Lng": -156.8791 ,
   "Height": 3 ,
   "Status": {},
   "Pics": [],
},
{
   "Name": " Puʻukaeʻo ",
   "Tags": ["Puu"],
   "Lat": 21.1326 ,
   "Lng": -156.9229 ,
   "Height": 3 ,
   "Status": {},
   "Pics": [],
},
{
   "Name": " 3627 ",
   "Tags": ["Puu"],
   "Lat": 21.106 ,
   "Lng": -156.8202 ,
   "Height": 3 ,
   "Status": {},
   "Pics": [],
},
{
   "Name": " Keahialoa ",
   "Tags": ["Puu"],
   "Lat": 20.9081 ,
   "Lng": -156.5537 ,
   "Height": 3 ,
   "Status": {},
   "Pics": [],
},
{
   "Name": " Puʻuʻōhelo ",
   "Tags": ["Puu"],
   "Lat": 21.1234 ,
   "Lng": -156.8084 ,
   "Height": 3 ,
   "Status": {},
   "Pics": [],
},
{
   "Name": " Puʻukaukanu ",
   "Tags": ["Puu"],
   "Lat": 20.7259 ,
   "Lng": -156.0482 ,
   "Height": 3 ,
   "Status": {},
   "Pics": [],
},
{
   "Name": " 3500 ",
   "Tags": ["Puu"],
   "Lat": 20.8623 ,
   "Lng": -156.5716 ,
   "Height": 3 ,
   "Status": {},
   "Pics": [],
},
{
   "Name": " Puʻuhoʻolio ",
   "Tags": ["Puu"],
   "Lat": 20.7059 ,
   "Lng": -156.0526 ,
   "Height": 3 ,
   "Status": {},
   "Pics": [],
},
{
   "Name": " Kaimaloo ",
   "Tags": ["Puu"],
   "Lat": 20.6405 ,
   "Lng": -156.3675 ,
   "Height": 3 ,
   "Status": {},
   "Pics": [],
},
{
   "Name": " Lānaʻihale ",
   "Tags": ["Puu"],
   "Lat": 20.883 ,
   "Lng": -156.765 ,
   "Height": 3 ,
   "Status": {"hide":true},
   "Pics": [],
},
{
   "Name": " Haalelepaakai ",
   "Tags": ["Puu"],
   "Lat": 20.8101 ,
   "Lng": -156.8699 ,
   "Height": 3 ,
   "Status": {},
   "Pics": [],
},
{
   "Name": " Puʻumakaliʻiliʻi ",
   "Tags": ["Puu"],
   "Lat": 21.1323 ,
   "Lng": -156.939 ,
   "Height": 3 ,
   "Status": {},
   "Pics": [],
},
{
   "Name": " Honukaʻupu ",
   "Tags": ["Puu"],
   "Lat": 21.1532 ,
   "Lng": -156.8668 ,
   "Height": 3 ,
   "Status": {},
   "Pics": [],
},
{
   "Name": " Kulanapahu ",
   "Tags": ["Puu"],
   "Lat": 20.6435 ,
   "Lng": -156.3757 ,
   "Height": 3 ,
   "Status": {},
   "Pics": [],
},
{
   "Name": " Puʻuʻalaea ",
   "Tags": ["Puu"],
   "Lat": 20.8119 ,
   "Lng": -156.2902 ,
   "Height": 3 ,
   "Status": {},
   "Pics": [],
},
{
   "Name": " Kaluahauoni ",
   "Tags": ["Puu"],
   "Lat": 21.1515 ,
   "Lng": -156.9379 ,
   "Height": 3 ,
   "Status": {},
   "Pics": [],
},
{
   "Name": " Kawaiuliuli ",
   "Tags": ["Puu"],
   "Lat": 21.1126 ,
   "Lng": -156.8075 ,
   "Height": 3 ,
   "Status": {},
   "Pics": [],
},
{
   "Name": " Waiakeekua ",
   "Tags": ["Puu"],
   "Lat": 20.8069 ,
   "Lng": -156.8656 ,
   "Height": 3 ,
   "Status": {},
   "Pics": [],
},
{
   "Name": " Pākī ",
   "Tags": ["Puu"],
   "Lat": 20.7628 ,
   "Lng": -156.0642 ,
   "Height": 3 ,
   "Status": {},
   "Pics": [],
},
{
   "Name": " Pōhākaunoho Ridge ",
   "Tags": ["Puu"],
   "Lat": 21.1166 ,
   "Lng": -156.8643 ,
   "Height": 3 ,
   "Status": {},
   "Pics": [],
},
{
   "Name": " Puʻulua ",
   "Tags": ["Puu"],
   "Lat": 21.1103 ,
   "Lng": -156.8094 ,
   "Height": 3 ,
   "Status": {},
   "Pics": [],
},
{
   "Name": " Mauna Alani ",
   "Tags": ["Puu"],
   "Lat": 20.9155 ,
   "Lng": -156.5498 ,
   "Height": 3 ,
   "Status": {},
   "Pics": [],
},
{
   "Name": " Ulaula ",
   "Tags": ["Puu"],
   "Lat": 20.8355 ,
   "Lng": -156.5882 ,
   "Height": 3 ,
   "Status": {},
   "Pics": [],
},
{
   "Name": " Keahikauo ",
   "Tags": ["Puu"],
   "Lat": 20.939 ,
   "Lng": -156.5645 ,
   "Height": 3 ,
   "Status": {},
   "Pics": [],
},
{
   "Name": " Koaʻekea ",
   "Tags": ["Puu"],
   "Lat": 20.7403 ,
   "Lng": -156.036 ,
   "Height": 2 ,
   "Status": {},
   "Pics": [],
},
{
   "Name": " Kaulalewelewe ",
   "Tags": ["Puu"],
   "Lat": 20.9341 ,
   "Lng": -156.6147 ,
   "Height": 2 ,
   "Status": {},
   "Pics": [],
},
{
   "Name": " Puu Anu ",
   "Tags": ["Puu"],
   "Lat": 20.8222 ,
   "Lng": -156.5489 ,
   "Height": 2 ,
   "Status": {},
   "Pics": [],
},
{
   "Name": " Puʻu Kole ",
   "Tags": ["Puu"],
   "Lat": 20.8078 ,
   "Lng": -156.8721 ,
   "Height": 2 ,
   "Status": {},
   "Pics": [],
},
{
   "Name": " Hanaulaiki ",
   "Tags": ["Puu"],
   "Lat": 20.82 ,
   "Lng": -156.5663 ,
   "Height": 2 ,
   "Status": {},
   "Pics": [],
},
{
   "Name": " Puʻukue ",
   "Tags": ["Puu"],
   "Lat": 20.6987 ,
   "Lng": -156.049 ,
   "Height": 2 ,
   "Status": {},
   "Pics": [],
},
{
   "Name": " Kaluaolohe ",
   "Tags": ["Puu"],
   "Lat": 21.1417 ,
   "Lng": -156.9538 ,
   "Height": 2 ,
   "Status": {},
   "Pics": [],
},
{
   "Name": " Luapelani ",
   "Tags": ["Puu"],
   "Lat": 20.6364 ,
   "Lng": -156.3772 ,
   "Height": 2 ,
   "Status": {},
   "Pics": [],
},
{
   "Name": " Puu Kaeo ",
   "Tags": ["Puu"],
   "Lat": 20.6494 ,
   "Lng": -156.385 ,
   "Height": 2 ,
   "Status": {},
   "Pics": [],
},
{
   "Name": " Keahiakalio ",
   "Tags": ["Puu"],
   "Lat": 21.1468 ,
   "Lng": -156.8021 ,
   "Height": 2 ,
   "Status": {},
   "Pics": [],
},
{
   "Name": " Puʻupūʻou ",
   "Tags": ["Puu"],
   "Lat": 20.7636 ,
   "Lng": -156.053 ,
   "Height": 2 ,
   "Status": {},
   "Pics": [],
},
{
   "Name": " Puu Io ",
   "Tags": ["Puu"],
   "Lat": 20.6728 ,
   "Lng": -156.3813 ,
   "Height": 2 ,
   "Status": {},
   "Pics": [],
},
{
   "Name": " Puʻualiʻi ",
   "Tags": ["Puu"],
   "Lat": 20.8247 ,
   "Lng": -156.8917 ,
   "Height": 2 ,
   "Status": {},
   "Pics": [],
},
{
   "Name": " Puʻuhoʻolewa ",
   "Tags": ["Puu"],
   "Lat": 20.7222 ,
   "Lng": -156.0405 ,
   "Height": 2 ,
   "Status": {},
   "Pics": [],
},
{
   "Name": " Kāleleʻolehuaʻula ",
   "Tags": ["Puu"],
   "Lat": 21.1182 ,
   "Lng": -156.8774 ,
   "Height": 2 ,
   "Status": {},
   "Pics": [],
},
{
   "Name": " Puu Mahoe ",
   "Tags": ["Puu"],
   "Lat": 20.635 ,
   "Lng": -156.3836 ,
   "Height": 2 ,
   "Status": {},
   "Pics": [],
},
{
   "Name": " Puʻuonepohue ",
   "Tags": ["Puu"],
   "Lat": 20.8234 ,
   "Lng": -156.2975 ,
   "Height": 2 ,
   "Status": {},
   "Pics": [],
},
{
   "Name": " Kaonohua ",
   "Tags": ["Puu"],
   "Lat": 20.8258 ,
   "Lng": -156.5409 ,
   "Height": 2 ,
   "Status": {},
   "Pics": [],
},
{
   "Name": " Koai ",
   "Tags": ["Puu"],
   "Lat": 20.8288 ,
   "Lng": -156.5883 ,
   "Height": 2 ,
   "Status": {},
   "Pics": [],
},
{
   "Name": " Puʻupane ",
   "Tags": ["Puu"],
   "Lat": 20.804 ,
   "Lng": -156.3152 ,
   "Height": 2 ,
   "Status": {},
   "Pics": [],
},
{
   "Name": " Lanilili ",
   "Tags": ["Puu"],
   "Lat": 20.9452 ,
   "Lng": -156.5543 ,
   "Height": 2 ,
   "Status": {},
   "Pics": [],
},
{
   "Name": " Paupau ",
   "Tags": ["Puu"],
   "Lat": 20.8879 ,
   "Lng": -156.6297 ,
   "Height": 2 ,
   "Status": {},
   "Pics": [],
},
{
   "Name": " Puu o Kaupo ",
   "Tags": ["Puu"],
   "Lat": 20.9046 ,
   "Lng": -156.5452 ,
   "Height": 2 ,
   "Status": {},
   "Pics": [],
},
{
   "Name": " Hokuula ",
   "Tags": ["Puu"],
   "Lat": 20.8423 ,
   "Lng": -156.5686 ,
   "Height": 2 ,
   "Status": {},
   "Pics": [],
},
{
   "Name": " Kaunupahu ",
   "Tags": ["Puu"],
   "Lat": 21.1571 ,
   "Lng": -156.7942 ,
   "Height": 2 ,
   "Status": {},
   "Pics": [],
},
{
   "Name": " Kaihuokalā ",
   "Tags": ["Puu"],
   "Lat": 20.7426 ,
   "Lng": -156.025 ,
   "Height": 2 ,
   "Status": {},
   "Pics": [],
},
{
   "Name": " Puu Moe ",
   "Tags": ["Puu"],
   "Lat": 20.8163 ,
   "Lng": -156.5411 ,
   "Height": 2 ,
   "Status": {},
   "Pics": [],
},
{
   "Name": " Lualaʻilua Hills ",
   "Tags": ["Puu"],
   "Lat": 20.6242 ,
   "Lng": -156.3057 ,
   "Height": 2 ,
   "Status": {},
   "Pics": [],
},
{
   "Name": " Puu Luau ",
   "Tags": ["Puu"],
   "Lat": 20.8095 ,
   "Lng": -156.5481 ,
   "Height": 2 ,
   "Status": {},
   "Pics": [],
},
{
   "Name": " Kekaalaau ",
   "Tags": ["Puu"],
   "Lat": 20.9542 ,
   "Lng": -156.6125 ,
   "Height": 2 ,
   "Status": {},
   "Pics": [],
},
{
   "Name": " Puʻukauā ",
   "Tags": ["Puu"],
   "Lat": 21.1609 ,
   "Lng": -156.9673 ,
   "Height": 2 ,
   "Status": {},
   "Pics": [],
},
{
   "Name": " Lapakohana ",
   "Tags": ["Puu"],
   "Lat": 21.0981 ,
   "Lng": -156.9274 ,
   "Height": 2 ,
   "Status": {},
   "Pics": [],
},
{
   "Name": " Puʻuau ",
   "Tags": ["Puu"],
   "Lat": 21.1502 ,
   "Lng": -156.7848 ,
   "Height": 2 ,
   "Status": {},
   "Pics": [],
},
{
   "Name": " Maunaʻoluʻolu ",
   "Tags": ["Puu"],
   "Lat": 21.0907 ,
   "Lng": -156.8296 ,
   "Height": 2 ,
   "Status": {},
   "Pics": [],
},
{
   "Name": " Piiholo ",
   "Tags": ["Puu"],
   "Lat": 20.8526 ,
   "Lng": -156.2901 ,
   "Height": 2 ,
   "Status": {},
   "Pics": [],
},
{
   "Name": " Pōhakuloa ",
   "Tags": ["Puu"],
   "Lat": 21.1607 ,
   "Lng": -156.7904 ,
   "Height": 2 ,
   "Status": {},
   "Pics": [],
},
{
   "Name": " Needle, The ",
   "Tags": ["Puu"],
   "Lat": 20.8853 ,
   "Lng": -156.5517 ,
   "Height": 2 ,
   "Status": {},
   "Pics": [],
},
{
   "Name": " Palikea ",
   "Tags": ["Puu"],
   "Lat": 20.6771 ,
   "Lng": -156.0737 ,
   "Height": 2 ,
   "Status": {},
   "Pics": [],
},
{
   "Name": " Nāpuʻukūlua ",
   "Tags": ["Puu"],
   "Lat": 21.0822 ,
   "Lng": -156.8998 ,
   "Height": 2 ,
   "Status": {},
   "Pics": [],
},
{
   "Name": " Ulalena ",
   "Tags": ["Puu"],
   "Lat": 20.8637 ,
   "Lng": -156.2511 ,
   "Height": 2 ,
   "Status": {},
   "Pics": [],
},
{
   "Name": " Puʻuʻōlelo ",
   "Tags": ["Puu"],
   "Lat": 21.1665 ,
   "Lng": -156.9793 ,
   "Height": 2 ,
   "Status": {},
   "Pics": [],
},
{
   "Name": " Puʻumanu ",
   "Tags": ["Puu"],
   "Lat": 20.7811 ,
   "Lng": -156.8655 ,
   "Height": 2 ,
   "Status": {},
   "Pics": [],
},
{
   "Name": " Kanupa ",
   "Tags": ["Puu"],
   "Lat": 21.1644 ,
   "Lng": -156.7792 ,
   "Height": 2 ,
   "Status": {},
   "Pics": [],
},
{
   "Name": " Puʻualeʻaleʻa ",
   "Tags": ["Puu"],
   "Lat": 20.848 ,
   "Lng": -156.9218 ,
   "Height": 2 ,
   "Status": {},
   "Pics": [],
},
{
   "Name": " Pohoula ",
   "Tags": ["Puu"],
   "Lat": 20.8459 ,
   "Lng": -156.9206 ,
   "Height": 2 ,
   "Status": {},
   "Pics": [],
},
{
   "Name": " Keahikano ",
   "Tags": ["Puu"],
   "Lat": 20.9674 ,
   "Lng": -156.6075 ,
   "Height": 2 ,
   "Status": {},
   "Pics": [],
},
{
   "Name": " Puu Makina ",
   "Tags": ["Puu"],
   "Lat": 20.9568 ,
   "Lng": -156.6227 ,
   "Height": 1 ,
   "Status": {},
   "Pics": [],
},
{
   "Name": " Kealaloloa Ridge ",
   "Tags": ["Puu"],
   "Lat": 20.8065 ,
   "Lng": -156.539 ,
   "Height": 1 ,
   "Status": {},
   "Pics": [],
},
{
   "Name": " Puu Koa ",
   "Tags": ["Puu"],
   "Lat": 20.8295 ,
   "Lng": -156.3223 ,
   "Height": 1 ,
   "Status": {},
   "Pics": [],
},
{
   "Name": " Puu Ehu ",
   "Tags": ["Puu"],
   "Lat": 20.8627 ,
   "Lng": -156.2928 ,
   "Height": 1 ,
   "Status": {},
   "Pics": [],
},
{
   "Name": " Makalau ",
   "Tags": ["Puu"],
   "Lat": 20.8562 ,
   "Lng": -156.9186 ,
   "Height": 1 ,
   "Status": {},
   "Pics": [],
},
{
   "Name": " Olopawa ",
   "Tags": ["Puu"],
   "Lat": 20.7676 ,
   "Lng": -156.0341 ,
   "Height": 1 ,
   "Status": {},
   "Pics": [],
},
{
   "Name": " Nīniniwai Hill ",
   "Tags": ["Puu"],
   "Lat": 20.8307 ,
   "Lng": -156.913 ,
   "Height": 1 ,
   "Status": {},
   "Pics": [],
},
{
   "Name": " Kānepuʻu ",
   "Tags": ["Puu"],
   "Lat": 20.8672 ,
   "Lng": -156.9569 ,
   "Height": 1 ,
   "Status": {},
   "Pics": [],
},
{
   "Name": " Pimoe ",
   "Tags": ["Puu"],
   "Lat": 20.6133 ,
   "Lng": -156.3688 ,
   "Height": 1 ,
   "Status": {},
   "Pics": [],
},
{
   "Name": " Puu Kaeo ",
   "Tags": ["Puu"],
   "Lat": 20.9685 ,
   "Lng": -156.6182 ,
   "Height": 1 ,
   "Status": {},
   "Pics": [],
},
{
   "Name": " Hahaeule ",
   "Tags": ["Puu"],
   "Lat": 21.1631 ,
   "Lng": -157.0029 ,
   "Height": 1 ,
   "Status": {},
   "Pics": [],
},
{
   "Name": " Puʻuhīnaʻi ",
   "Tags": ["Puu"],
   "Lat": 20.7813 ,
   "Lng": -156.0595 ,
   "Height": 1 ,
   "Status": {},
   "Pics": [],
},
{
   "Name": " Kanoa Ridge ",
   "Tags": ["Puu"],
   "Lat": 20.9486 ,
   "Lng": -156.5395 ,
   "Height": 1 ,
   "Status": {},
   "Pics": [],
},
{
   "Name": " Hulupuʻuniu ",
   "Tags": ["Puu"],
   "Lat": 20.8246 ,
   "Lng": -156.9344 ,
   "Height": 1 ,
   "Status": {},
   "Pics": [],
},
{
   "Name": " Kaokao Ridge ",
   "Tags": ["Puu"],
   "Lat": 20.6576 ,
   "Lng": -156.1258 ,
   "Height": 1 ,
   "Status": {},
   "Pics": [],
},
{
   "Name": " Hoʻopapalani Hill ",
   "Tags": ["Puu"],
   "Lat": 20.8336 ,
   "Lng": -156.9338 ,
   "Height": 1 ,
   "Status": {},
   "Pics": [],
},
{
   "Name": " Puʻu Koa ",
   "Tags": ["Puu"],
   "Lat": 20.8171 ,
   "Lng": -156.9433 ,
   "Height": 1 ,
   "Status": {},
   "Pics": [],
},
{
   "Name": " Puʻumakani ",
   "Tags": ["Puu"],
   "Lat": 20.7781 ,
   "Lng": -156.8848 ,
   "Height": 1 ,
   "Status": {},
   "Pics": [],
},
{
   "Name": " Kepookoholua ",
   "Tags": ["Puu"],
   "Lat": 21.1619 ,
   "Lng": -156.7592 ,
   "Height": 1 ,
   "Status": {},
   "Pics": [],
},
{
   "Name": " Akahi ",
   "Tags": ["Puu"],
   "Lat": 21.0901 ,
   "Lng": -156.8064 ,
   "Height": 1 ,
   "Status": {},
   "Pics": [],
},
{
   "Name": " Kauluwai ",
   "Tags": ["Puu"],
   "Lat": 21.1595 ,
   "Lng": -157.0105 ,
   "Height": 1 ,
   "Status": {},
   "Pics": [],
},
{
   "Name": " Puvunānāihawaiʻi ",
   "Tags": ["Puu"],
   "Lat": 20.8095 ,
   "Lng": -156.9369 ,
   "Height": 1 ,
   "Status": {},
   "Pics": [],
},
{
   "Name": " Kauiki ",
   "Tags": ["Puu"],
   "Lat": 20.853 ,
   "Lng": -156.8926 ,
   "Height": 1 ,
   "Status": {},
   "Pics": [],
},
{
   "Name": " Puu o Malei ",
   "Tags": ["Puu"],
   "Lat": 20.8711 ,
   "Lng": -156.3075 ,
   "Height": 1 ,
   "Status": {},
   "Pics": [],
},
{
   "Name": " Puʻu ʻO Moaʻula Nui ",
   "Tags": ["Puu"],
   "Lat": 20.0757461 ,
   "Lng": -156.5182 ,
   "Height": 1 ,
   "Status": {"hide":true},
   "Pics": [],
},
{
   "Name": " Kawaikapu ",
   "Tags": ["Puu"],
   "Lat": 21.1628 ,
   "Lng": -156.7565 ,
   "Height": 1 ,
   "Status": {},
   "Pics": [],
},
{
   "Name": " Puu o Kali ",
   "Tags": ["Puu"],
   "Lat": 20.7309 ,
   "Lng": -156.3851 ,
   "Height": 1 ,
   "Status": {},
   "Pics": [],
},
{
   "Name": " Hōkūkano ",
   "Tags": ["Puu"],
   "Lat": 20.608 ,
   "Lng": -156.3295 ,
   "Height": 1 ,
   "Status": {},
   "Pics": [],
},
{
   "Name": " Mahana ",
   "Tags": ["Puu"],
   "Lat": 20.9709 ,
   "Lng": -156.6261 ,
   "Height": 1 ,
   "Status": {},
   "Pics": [],
},
{
   "Name": " Maunakini ",
   "Tags": ["Puu"],
   "Lat": 20.9739 ,
   "Lng": -156.5641 ,
   "Height": 1 ,
   "Status": {},
   "Pics": [],
},
{
   "Name": " Puʻumāhanalua ",
   "Tags": ["Puu"],
   "Lat": 20.7699 ,
   "Lng": -156.8865 ,
   "Height": 1 ,
   "Status": {},
   "Pics": [],
},
{
   "Name": " Puʻu ʻO Moaʻula Iki ",
   "Tags": ["Puu"],
   "Lat": 20.563 ,
   "Lng": -156.5829 ,
   "Height": 1 ,
   "Status": {},
   "Pics": [],
},
{
   "Name": " Kukui ",
   "Tags": ["Puu"],
   "Lat": 21.1615 ,
   "Lng": -157.1133 ,
   "Height": 1 ,
   "Status": {},
   "Pics": [],
},
{
   "Name": " Kaukini Ridge ",
   "Tags": ["Puu"],
   "Lat": 20.9692 ,
   "Lng": -156.5568 ,
   "Height": 1 ,
   "Status": {},
   "Pics": [],
},
{
   "Name": " Puu Olelo ",
   "Tags": ["Puu"],
   "Lat": 20.968 ,
   "Lng": -156.552 ,
   "Height": 1 ,
   "Status": {},
   "Pics": [],
},
{
   "Name": " ʻAmikopala ",
   "Tags": ["Puu"],
   "Lat": 21.1309 ,
   "Lng": -157.1862 ,
   "Height": 1 ,
   "Status": {},
   "Pics": [],
},
{
   "Name": " Puʻunānā ",
   "Tags": ["Puu"],
   "Lat": 21.1419 ,
   "Lng": -157.1608 ,
   "Height": 1 ,
   "Status": {},
   "Pics": [],
},
{
   "Name": " Puu Anoano ",
   "Tags": ["Puu"],
   "Lat": 21.1645 ,
   "Lng": -157.0233 ,
   "Height": 1 ,
   "Status": {},
   "Pics": [],
},
{
   "Name": " ʻ&#298;liolono ",
   "Tags": ["Puu"],
   "Lat": 20.7893 ,
   "Lng": -156.9504 ,
   "Height": 1 ,
   "Status": {},
   "Pics": [],
},
{
   "Name": " Papaloa ",
   "Tags": ["Puu"],
   "Lat": 20.6655 ,
   "Lng": -156.0738 ,
   "Height": 1 ,
   "Status": {},
   "Pics": [],
},
{
   "Name": " Kāʻana ",
   "Tags": ["Puu"],
   "Lat": 21.1278 ,
   "Lng": -157.1491 ,
   "Height": 1 ,
   "Status": {},
   "Pics": [],
},
{
   "Name": " Kaimumanō ",
   "Tags": ["Puu"],
   "Lat": 21.1042 ,
   "Lng": -156.7805 ,
   "Height": 1 ,
   "Status": {},
   "Pics": [],
},
{
   "Name": " Puʻuʻulaʻula ",
   "Tags": ["Puu"],
   "Lat": 20.7686 ,
   "Lng": -156.9652 ,
   "Height": 1 ,
   "Status": {},
   "Pics": [],
},
{
   "Name": " Keakamanu ",
   "Tags": ["Puu"],
   "Lat": 20.7273 ,
   "Lng": -156.0099 ,
   "Height": 1 ,
   "Status": {},
   "Pics": [],
},
{
   "Name": " Wāwaekū ",
   "Tags": ["Puu"],
   "Lat": 20.8602 ,
   "Lng": -156.8812 ,
   "Height": 1 ,
   "Status": {},
   "Pics": [],
},
{
   "Name": " Kauhikoa ",
   "Tags": ["Puu"],
   "Lat": 20.8903 ,
   "Lng": -156.317 ,
   "Height": 1 ,
   "Status": {},
   "Pics": [],
},
{
   "Name": " Puu Luahine ",
   "Tags": ["Puu"],
   "Lat": 21.1322 ,
   "Lng": -157.0062 ,
   "Height": 1 ,
   "Status": {},
   "Pics": [],
},
{
   "Name": " Kākalahale ",
   "Tags": ["Puu"],
   "Lat": 21.1228 ,
   "Lng": -156.9968 ,
   "Height": 1 ,
   "Status": {},
   "Pics": [],
},
{
   "Name": " Haleone ",
   "Tags": ["Puu"],
   "Lat": 21.0859 ,
   "Lng": -156.8101 ,
   "Height": 1 ,
   "Status": {},
   "Pics": [],
},
{
   "Name": " Pohakea ",
   "Tags": ["Puu"],
   "Lat": 20.6034 ,
   "Lng": -156.3623 ,
   "Height": 1 ,
   "Status": {},
   "Pics": [],
},
{
   "Name": " Pohakuloa ",
   "Tags": ["Puu"],
   "Lat": 20.9748 ,
   "Lng": -156.553 ,
   "Height": 1 ,
   "Status": {},
   "Pics": [],
},
{
   "Name": " Puʻumōiwi ",
   "Tags": ["Puu"],
   "Lat": 20.5431 ,
   "Lng": -156.6052 ,
   "Height": 1 ,
   "Status": {},
   "Pics": [],
},
{
   "Name": " Kapuai o Kamehameha ",
   "Tags": ["Puu"],
   "Lat": 20.9001 ,
   "Lng": -156.2764 ,
   "Height": 1 ,
   "Status": {},
   "Pics": [],
},
{
   "Name": " Eleuweuwe ",
   "Tags": ["Puu"],
   "Lat": 21.1704 ,
   "Lng": -157.0331 ,
   "Height": 1 ,
   "Status": {},
   "Pics": [],
},
{
   "Name": " Puu Naio ",
   "Tags": ["Puu"],
   "Lat": 20.6182 ,
   "Lng": -156.4024 ,
   "Height": 1 ,
   "Status": {},
   "Pics": [],
},
{
   "Name": " Puu Kahala ",
   "Tags": ["Puu"],
   "Lat": 20.771 ,
   "Lng": -156.3817 ,
   "Height": 1 ,
   "Status": {},
   "Pics": [],
},
{
   "Name": " Kāhilikalani ",
   "Tags": ["Puu"],
   "Lat": 20.7581 ,
   "Lng": -156.9754 ,
   "Height": 1 ,
   "Status": {},
   "Pics": [],
},
{
   "Name": " Kualapuu ",
   "Tags": ["Puu"],
   "Lat": 21.1555 ,
   "Lng": -157.0484 ,
   "Height": 1 ,
   "Status": {},
   "Pics": [],
},
{
   "Name": " Hāʻupu ",
   "Tags": ["Puu"],
   "Lat": 21.1655 ,
   "Lng": -156.8893 ,
   "Height": 1 ,
   "Status": {},
   "Pics": [],
},
{
   "Name": " Maunaʻoʻumi ",
   "Tags": ["Puu"],
   "Lat": 20.7959 ,
   "Lng": -156.8352 ,
   "Height": 1 ,
   "Status": {},
   "Pics": [],
},
{
   "Name": " Puu Hipa ",
   "Tags": ["Puu"],
   "Lat": 20.8435 ,
   "Lng": -156.6249 ,
   "Height": 1 ,
   "Status": {},
   "Pics": [],
},
{
   "Name": " Puu Olai ",
   "Tags": ["Puu"],
   "Lat": 20.976 ,
   "Lng": -156.5352 ,
   "Height": 998 ,
   "Status": {"visited":true},
 //  "Page": {"url":"./Maui/Data/trails/7miles.html", "display":true, "proofed":true}, 
   "Pics": [
      {"img":"https://lh3.googleusercontent.com/pw/AL9nZEXIQAtopYoBaL9LYLri495FaV550o3sH7S_Y3cDIN5dnJZ6E9gptVbA7veStYcA38zG1zhoNhb7QY-UJI4418VTJtJQDKhzklmXeauKee0JrojTRJFUeG8Zj921dxTRBp87KtfnYKE6r84WS_kmVyAP6Q=w2107-h1580-no"},
   ],
},
{
   "Name": " Puʻukolo ",
   "Tags": ["Puu"],
   "Lat": 20.7372 ,
   "Lng": -156.0032 ,
   "Height": 940 ,
   "Status": {},
   "Pics": [],
},
{
   "Name": " Puu Hona ",
   "Tags": ["Puu"],
   "Lat": 20.8123 ,
   "Lng": -156.5204 ,
   "Height": 905 ,
   "Status": {},
   "Pics": [],
},
{
   "Name": " Puʻukahua ",
   "Tags": ["Puu"],
   "Lat": 20.5419 ,
   "Lng": -156.6226 ,
   "Height": 902 ,
   "Status": {},
   "Pics": [],
},
{
   "Name": " Puʻumanō ",
   "Tags": ["Puu"],
   "Lat": 21.0984 ,
   "Lng": -156.7777 ,
   "Height": 902 ,
   "Status": {},
   "Pics": [],
},
{
   "Name": " Kāluakanaka ",
   "Tags": ["Puu"],
   "Lat": 21.1158 ,
   "Lng": -157.1532 ,
   "Height": 902 ,
   "Status": {},
   "Pics": [],
},
{
   "Name": " Pahūolonā ",
   "Tags": ["Puu"],
   "Lat": 20.7369 ,
   "Lng": -156.0022 ,
   "Height": 900 ,
   "Status": {},
   "Pics": [],
},
{
   "Name": " Kapalikōī ",
   "Tags": ["Puu"],
   "Lat": 21.1153 ,
   "Lng": -157.2023 ,
   "Height": 892 ,
   "Status": {},
   "Pics": [],
},
{
   "Name": " Puʻupili ",
   "Tags": ["Puu"],
   "Lat": 21.1667 ,
   "Lng": -157.1627 ,
   "Height": 889 ,
   "Status": {},
   "Pics": [],
},
{
   "Name": " Kuloli ",
   "Tags": ["Puu"],
   "Lat": 20.9147 ,
   "Lng": -156.2856 ,
   "Height": 858 ,
   "Status": {},
   "Pics": [],
},
{
   "Name": " Kaluakau ",
   "Tags": ["Puu"],
   "Lat": 21.1153 ,
   "Lng": -157.1468 ,
   "Height": 836 ,
   "Status": {},
   "Pics": [],
},
{
   "Name": " Puu Papai ",
   "Tags": ["Puu"],
   "Lat": 21.0667 ,
   "Lng": -156.8989 ,
   "Height": 836 ,
   "Status": {},
   "Pics": [],
},
{
   "Name": " Koaliʻi ",
   "Tags": ["Puu"],
   "Lat": 21.1485 ,
   "Lng": -156.73 ,
   "Height": 820 ,
   "Status": {},
   "Pics": [],
},
{
   "Name": " Pohakuloa ",
   "Tags": ["Puu"],
   "Lat": 21.1241 ,
   "Lng": -157.2326 ,
   "Height": 811 ,
   "Status": {},
   "Pics": [],
},
{
   "Name": " Puu Mahanalua Nui ",
   "Tags": ["Puu"],
   "Lat": 20.8417 ,
   "Lng": -156.6298 ,
   "Height": 809 ,
   "Status": {},
   "Pics": [],
},
{
   "Name": " Makaliʻihānau ",
   "Tags": ["Puu"],
   "Lat": 20.6916 ,
   "Lng": -156.022 ,
   "Height": 780 ,
   "Status": {},
   "Pics": [],
},
{
   "Name": " Kahalelani ",
   "Tags": ["Puu"],
   "Lat": 21.1691 ,
   "Lng": -157.1847 ,
   "Height": 770 ,
   "Status": {},
   "Pics": [],
},
{
   "Name": " Kalanikāula ",
   "Tags": ["Puu"],
   "Lat": 21.1511 ,
   "Lng": -156.7286 ,
   "Height": 754 ,
   "Status": {},
   "Pics": [],
},
{
   "Name": " Puʻuhoʻolehua ",
   "Tags": ["Puu"],
   "Lat": 21.1185 ,
   "Lng": -157.131 ,
   "Height": 754 ,
   "Status": {},
   "Pics": [],
},
{
   "Name": " Waihuna ",
   "Tags": ["Puu"],
   "Lat": 21.1557 ,
   "Lng": -157.1313 ,
   "Height": 738 ,
   "Status": {},
   "Pics": [],
},
{
   "Name": " Puu Kilea ",
   "Tags": ["Puu"],
   "Lat": 21.0027 ,
   "Lng": -156.6165 ,
   "Height": 732 ,
   "Status": {},
   "Pics": [],
},
{
   "Name": " Helani ",
   "Tags": ["Puu"],
   "Lat": 20.761 ,
   "Lng": -156.0071 ,
   "Height": 700 ,
   "Status": {},
   "Pics": [],
},
{
   "Name": " Kuala ",
   "Tags": ["Puu"],
   "Lat": 21.1361 ,
   "Lng": -156.7326 ,
   "Height": 669 ,
   "Status": {},
   "Pics": [],
},
{
   "Name": " Puu Laina ",
   "Tags": ["Puu"],
   "Lat": 20.8964 ,
   "Lng": -156.6657 ,
   "Height": 650 ,
   "Status": {},
   "Pics": [],
},
{
   "Name": " Puʻu Koaʻe ",
   "Tags": ["Puu"],
   "Lat": 20.999 ,
   "Lng": -156.5453 ,
   "Height": 636 ,
   "Status": {},
   "Pics": [],
},
{
   "Name": " Puu o Umi ",
   "Tags": ["Puu"],
   "Lat": 20.917 ,
   "Lng": -156.3291 ,
   "Height": 634 ,
   "Status": {},
   "Pics": [],
},
{
   "Name": " Puu Haunako ",
   "Tags": ["Puu"],
   "Lat": 21.0012 ,
   "Lng": -156.5661 ,
   "Height": 627 ,
   "Status": {},
   "Pics": [],
},
{
   "Name": " Waiʻeli ",
   "Tags": ["Puu"],
   "Lat": 21.1069 ,
   "Lng": -157.2425 ,
   "Height": 606 ,
   "Status": {},
   "Pics": [],
},
{
   "Name": " Kaʻa ",
   "Tags": ["Puu"],
   "Lat": 21.2064 ,
   "Lng": -157.2018 ,
   "Height": 606 ,
   "Status": {},
   "Pics": [],
},
{
   "Name": " Puʻukanaio ",
   "Tags": ["Puu"],
   "Lat": 21.146 ,
   "Lng": -157.0667 ,
   "Height": 600 ,
   "Status": {},
   "Pics": [],
},
{
   "Name": " Kuinihu ",
   "Tags": ["Puu"],
   "Lat": 21.1653 ,
   "Lng": -157.2118 ,
   "Height": 587 ,
   "Status": {},
   "Pics": [],
},
{
   "Name": " Kaeo ",
   "Tags": ["Puu"],
   "Lat": 21.214 ,
   "Lng": -157.2247 ,
   "Height": 583 ,
   "Status": {},
   "Pics": [],
},
{
   "Name": " Kalua o Lapa ",
   "Tags": ["Puu"],
   "Lat": 20.6157 ,
   "Lng": -156.4131 ,
   "Height": 580 ,
   "Status": {},
   "Pics": [],
},
{
   "Name": " Puʻukūkae ",
   "Tags": ["Puu"],
   "Lat": 20.8937 ,
   "Lng": -156.2041 ,
   "Height": 574 ,
   "Status": {},
   "Pics": [],
},
{
   "Name": " Nāpuʻukūlua ",
   "Tags": ["Puu"],
   "Lat": 21.1553 ,
   "Lng": -157.2312 ,
   "Height": 574 ,
   "Status": {},
   "Pics": [],
},
{
   "Name": " Puu Kahulianapa ",
   "Tags": ["Puu"],
   "Lat": 20.9953 ,
   "Lng": -156.5445 ,
   "Height": 547 ,
   "Status": {},
   "Pics": [],
},
{
   "Name": " Puʻuokahaula ",
   "Tags": ["Puu"],
   "Lat": 20.7533 ,
   "Lng": -155.9981 ,
   "Height": 545 ,
   "Status": {},
   "Pics": [],
},
{
   "Name": " Okoli ",
   "Tags": ["Puu"],
   "Lat": 21.1762 ,
   "Lng": -157.2163 ,
   "Height": 541 ,
   "Status": {},
   "Pics": [],
},
{
   "Name": " Keikapalani ",
   "Tags": ["Puu"],
   "Lat": 21.0095 ,
   "Lng": -156.5766 ,
   "Height": 540 ,
   "Status": {},
   "Pics": [],
},
{
   "Name": " Puʻulaʻi ",
   "Tags": ["Puu"],
   "Lat": 20.5194 ,
   "Lng": -156.6495 ,
   "Height": 534 ,
   "Status": {},
   "Pics": [],
},
{
   "Name": " Kaʻapahu ",
   "Tags": ["Puu"],
   "Lat": 20.8704 ,
   "Lng": -157.0335 ,
   "Height": 482 ,
   "Status": {},
   "Pics": [],
},
{
   "Name": " Ka Iwi o Pele ",
   "Tags": ["Puu"],
   "Lat": 20.732 ,
   "Lng": -155.9902 ,
   "Height": 460 ,
   "Status": {},
   "Pics": [],
},
{
   "Name": " Haunaa ",
   "Tags": ["Puu"],
   "Lat": 21.0037 ,
   "Lng": -156.5606 ,
   "Height": 460 ,
   "Status": {},
   "Pics": [],
},
{
   "Name": " Umi ",
   "Tags": ["Puu"],
   "Lat": 20.9983 ,
   "Lng": -156.5581 ,
   "Height": 460 ,
   "Status": {},
   "Pics": [],
},
{
   "Name": " Puu Kapele ",
   "Tags": ["Puu"],
   "Lat": 21.1925 ,
   "Lng": -157.0892 ,
   "Height": 442 ,
   "Status": {},
   "Pics": [],
},
{
   "Name": " Puu o Pipika ",
   "Tags": ["Puu"],
   "Lat": 21.149 ,
   "Lng": -157.1136 ,
   "Height": 433 ,
   "Status": {},
   "Pics": [],
},
{
   "Name": " Puʻukoaʻe ",
   "Tags": ["Puu"],
   "Lat": 20.5135 ,
   "Lng": -156.6089 ,
   "Height": 387 ,
   "Status": {},
   "Pics": [],
},
{
   "Name": " Kaʻuiki Head ",
   "Tags": ["Puu"],
   "Lat": 20.7529 ,
   "Lng": -155.985 ,
   "Height": 386 ,
   "Status": {},
   "Pics": [],
},